"stationName","time","availableDocks","totalDocks","availableBikes","latitude","longitude"
"W 52 St & 11 Av","2013-06-05 12:12:01 AM","5","39","25","40.76727216","-73.99392888"
"Franklin & West Broadway","2013-06-05 12:12:01 AM","25","33","7","40.71911552","-74.00666661"
"St. James Pl & Pearl St","2013-06-05 12:12:01 AM","8","26","18","40.71117416","-74.00016545"
"Atlantic Av & Ft. Greene Pl","2013-06-05 12:12:01 AM","0","62","7","40.68382604","-73.97632328"
"W 17 Street & 8 Avenue","2013-06-05 12:12:01 AM","18","39","16","40.74177603","-74.00149746"
"Park Av & St. Edward's St","2013-06-05 12:12:01 AM","9","19","9","40.69608941","-73.97803415"
"Lexington Av & Classon Av","2013-06-05 12:12:01 AM","3","19","15","40.68676793","-73.95928168"
"Barrow St & Hudson St","2013-06-05 12:12:01 AM","4","31","24","40.73172428","-74.00674436"
"MacDougal St & Prince St","2013-06-05 12:12:01 AM","7","30","20","40.72710258","-74.00297088"
"Henry St & Grand St","2013-06-05 12:12:01 AM","13","30","15","40.71425541","-73.98130841"
"Clinton St & Joralemon St","2013-06-05 12:12:01 AM","1","25","21","40.69239502","-73.99337909"
"Nassau St & Navy St","2013-06-05 12:12:01 AM","8","19","9","40.69839895","-73.98068914"
"Hudson St and Reade St","2013-06-05 12:12:01 AM","23","39","11","40.71625008","-74.0091059"
"Greenwich St & Warren St","2013-06-05 12:12:01 AM","25","33","6","40.71542197","-74.01121978"
"E 2 Street & Avenue C","2013-06-05 12:12:01 AM","3","31","27","40.7208736","-73.98085795"
"Cleveland Pl & Spring St","2013-06-05 12:12:01 AM","29","33","1","40.7218158","-73.99720307"
"Warren St & Church St","2013-06-05 12:12:01 AM","8","29","19","40.71473993","-74.00910627"
"Henry St & Atlantic Av","2013-06-05 12:12:01 AM","0","23","19","40.69089272","-73.99612349"
"LaGuardia Pl & W 3 St","2013-06-05 12:12:01 AM","16","35","15","40.72917025","-73.99810231"
"E 47 Street and 2 Avenue","2013-06-05 12:12:01 AM","43","47","4","40.75323098","-73.97032517"
"E 39 St & 3 Av","2013-06-05 12:12:01 AM","41","45","3","40.7489006","-73.97604882"
"W 18 St & 6 Av","2013-06-05 12:12:01 AM","46","47","0","40.73971301","-73.99456405"
"E 25 Street and 1 Avenue","2013-06-05 12:12:01 AM","18","30","8","40.7381765","-73.97738662"
"Liberty St & Broadway","2013-06-05 12:12:01 AM","25","45","18","40.70905623","-74.01043382"
"W 16 St and the High Line","2013-06-05 12:12:01 AM","15","28","12","40.74334935","-74.00681753"
"Columbia Hts & Cranberry","2013-06-05 12:12:01 AM","7","23","14","40.70037867","-73.99548059"
"Old Fulton Street","2013-06-05 12:12:01 AM","25","39","11","40.70277159","-73.99383605"
"Gallatin Pl & Livingston St","2013-06-05 12:12:01 AM","9","39","27","40.69028437","-73.98707105"
"W 13 Street and 7 Avenue","2013-06-05 12:12:01 AM","12","33","17","40.73781509","-73.99994661"
"Spruce St & Nassau St","2013-06-05 12:12:01 AM","19","31","9","40.71146364","-74.00552427"
"W 14 St & the High Line","2013-06-05 12:12:01 AM","35","37","1","40.74195138","-74.00803013"
"Great Jones Street","2013-06-05 12:12:01 AM","23","27","3","40.72743423","-73.99379025"
"Cadman Plz E & Tillary","2013-06-05 12:12:01 AM","1","23","21","40.69597683","-73.99014892"
"Joralemon St & Adams St","2013-06-05 12:12:01 AM","27","39","12","40.69246277","-73.98963911"
"St. Mark's Pl & 2 Av","2013-06-05 12:12:01 AM","0","39","36","40.7284186","-73.98713956"
"E 11 Street & 2 Avenue","2013-06-05 12:12:01 AM","6","39","29","40.73047309","-73.98672378"
"Bank St & Washington St","2013-06-05 12:12:01 AM","4","31","23","40.7361967","-74.00859207"
"Wiloughby St & Fleet St","2013-06-05 12:12:01 AM","14","31","12","40.69196566","-73.9813018"
"Flushing Av & Carlton Av","2013-06-05 12:12:01 AM","7","23","11","40.69788349","-73.97350332"
"Flatbush Av & Fulton St","2013-06-05 12:12:01 AM","11","19","8","40.68866384","-73.98051836"
"Willoughby Av & Hall St","2013-06-05 12:12:01 AM","13","31","18","40.69196035","-73.96536851"
"Myrtle Av & St. Edward's St","2013-06-05 12:12:01 AM","5","23","15","40.69327018","-73.97703874"
"Perry St and Bleecker St","2013-06-05 12:12:01 AM","3","20","13","40.73535398","-74.00483091"
"Laight St & Hudson St","2013-06-05 12:12:01 AM","6","23","17","40.72185379","-74.00771779"
"Harrison St and Hudson St","2013-06-05 12:12:01 AM","25","27","2","40.71870987","-74.0090009"
"Lafayette St & Jersey St","2013-06-05 12:12:01 AM","38","40","1","40.72456089","-73.99565293"
"Mott St & Prince St","2013-06-05 12:12:01 AM","7","27","17","40.72317958","-73.99480012"
"MacDougal St & Washington Sq","2013-06-05 12:12:01 AM","24","33","8","40.73226398","-73.99852205"
"W 13 Street & 5 Avenue","2013-06-05 12:12:01 AM","45","47","1","40.73543934","-73.99453948"
"W 11 Street & 6 Avenue","2013-06-05 12:12:01 AM","26","31","3","40.73532427","-73.99800419"
"Clinton St & Tillary St","2013-06-05 12:12:01 AM","1","31","22","40.6963992845","-73.9914025057"
"Lispenard St & Broadway","2013-06-05 12:12:01 AM","12","39","24","40.71939226","-74.00247214"
"DeKalb Av & Vanderbilt Av","2013-06-05 12:12:01 AM","4","23","18","40.68940747","-73.96885458"
"South St and Whitehall St","2013-06-05 12:12:01 AM","22","39","13","40.70122128","-74.01234218"
"Broad St and Bridge St","2013-06-05 12:12:01 AM","34","35","1","40.70365182","-74.01167797"
"Johnson St & Gold St","2013-06-05 12:12:01 AM","1","27","23","40.69474881","-73.98362464"
"Washington Park","2013-06-05 12:12:01 AM","11","24","9","40.69178232","-73.97372989"
"Maiden Lane & Pearl St","2013-06-05 12:12:01 AM","9","27","18","40.70706456","-74.00731853"
"Stanton St & Chrystie St","2013-06-05 12:12:01 AM","11","35","19","40.72229346","-73.99147535"
"Avenue D & E 8 Street","2013-06-05 12:12:01 AM","5","24","14","40.72368361","-73.97574813"
"Broadway & W 36 St","2013-06-05 12:12:01 AM","56","57","0","40.75097711","-73.98765428"
"Howard St & Centre St","2013-06-05 12:12:01 AM","1","27","20","40.71910537","-73.99973337"
"Adelphi St & Myrtle Av","2013-06-05 12:12:01 AM","2","23","17","40.69308257","-73.97178913"
"Ashland Pl & Hanson Pl","2013-06-05 12:12:01 AM","4","37","30","40.68528172","-73.97805813"
"Lafayette Av & Ft. Greene Pl","2013-06-05 12:12:01 AM","8","31","20","40.68691865","-73.976682"
"Washington Av & Greene Av","2013-06-05 12:12:01 AM","6","19","13","40.68650065","-73.96563307"
"Duane St & Greenwich St","2013-06-05 12:12:01 AM","19","25","4","40.71748752","-74.0104554"
"Concord St & Bridge St","2013-06-05 12:12:01 AM","2","19","16","40.69766564","-73.98476437"
"Sands St & Gold St","2013-06-05 12:12:01 AM","12","19","7","40.69986937","-73.98271933"
"E 10 Street & 5 Avenue","2013-06-05 12:12:01 AM","26","31","4","40.73331967","-73.99510132"
"Kent & S 11","2013-06-05 12:12:01 AM","11","27","16","40.70827295","-73.96834101"
"Broadway and E 14 Street","2013-06-05 12:12:01 AM","39","47","7","40.73454567","-73.99074142"
"Monroe St & Classon Av","2013-06-05 12:12:01 AM","1","18","14","40.6845683","-73.95881081"
"2 Avenue & E 58 Street","2013-06-05 12:12:01 AM","3","28","20","40.76020258","-73.96478473"
"Gouverneur St & Madison St","2013-06-05 12:12:01 AM","14","23","9","40.71345221","-73.98398567"
"Lafayette St & E 8 St","2013-06-05 12:12:01 AM","51","54","2","40.73028666","-73.9907647"
"Washington Square East","2013-06-05 12:12:01 AM","1","31","27","40.73049393","-73.9957214"
"Pike St & East Broadway","2013-06-05 12:12:01 AM","7","24","15","40.71406667","-73.99293911"
"Division Street & Bowery","2013-06-05 12:12:01 AM","14","35","16","40.71413089","-73.9970468"
"3rd Avenue & Flatbush Avenue","2013-06-05 12:12:01 AM","13","35","17","40.68683208","-73.9796772"
"Cooper Sq & E 7 St","2013-06-05 12:12:01 AM","21","42","19","40.7289841","-73.99051868"
"E 2 Street & Avenue B","2013-06-05 12:12:01 AM","5","37","30","40.72217444","-73.98368779"
"Avenue D & E 3 Street","2013-06-05 12:12:01 AM","1","23","20","40.72082834","-73.97793172"
"Mercer St & Spring St","2013-06-05 12:12:01 AM","30","31","0","40.72362738","-73.99949601"
"Broadway & Battery Pl","2013-06-05 12:12:01 AM","8","36","22","40.70463334","-74.01361706"
"E 58 Street and 3 Avenue","2013-06-05 12:12:01 AM","9","33","22","40.76095756","-73.96724467"
"Cliff St & Fulton St","2013-06-05 12:12:01 AM","8","37","23","40.70823502","-74.00530063"
"Canal St & Rutgers St","2013-06-05 12:12:01 AM","13","31","17","40.71427487","-73.98990025"
"St. James Pl & Oliver St","2013-06-05 12:12:01 AM","18","27","7","40.71307916","-73.99851193"
"Murray St & West St","2013-06-05 12:12:01 AM","36","41","1","40.7149787","-74.013012"
"State St & Smith St","2013-06-05 12:12:01 AM","12","36","21","40.68926942","-73.98912867"
"Norfolk St & Broome St","2013-06-05 12:12:01 AM","28","31","3","40.7172274","-73.98802084"
"Allen St & E Houston St","2013-06-05 12:12:01 AM","3","39","32","40.72263214","-73.98887365"
"Washington Av & Park Av","2013-06-05 12:12:01 AM","1","23","19","40.69610226","-73.96751037"
"Montague St & Clinton St","2013-06-05 12:12:01 AM","1","39","34","40.69424674","-73.99215922"
"South St & Gouverneur La","2013-06-05 12:12:01 AM","21","29","7","40.70355377","-74.00670227"
"Fulton St and William St","2013-06-05 12:12:01 AM","17","42","24","40.70955958","-74.00653609"
"E 6 Street & Avenue B","2013-06-05 12:12:01 AM","4","27","21","40.72453734","-73.98185424"
"E 43 St & Vanderbilt Av","2013-06-05 12:12:01 AM","30","31","1","40.75320159","-73.9779874"
"Park Pl & Church S","2013-06-05 12:12:01 AM","28","35","5","40.71336124","-74.00937622"
"Church St & Leonard St","2013-06-05 12:12:01 AM","17","39","19","40.71743998","-74.00583475"
"Cadman Plz E & Red Cross","2013-06-05 12:12:01 AM","19","27","6","40.69991755","-73.98971773"
"Lawrence Street & Willoughby Street","2013-06-05 12:12:01 AM","20","39","17","40.69236178","-73.98631746"
"DeKalb Av & Hudson Av","2013-06-05 12:12:01 AM","25","51","24","40.689888","-73.981013"
"E 19 Street and 3 Avenue","2013-06-05 12:12:01 AM","12","35","21","40.73624527","-73.98473765"
"E 11 Street & 1 Avenue","2013-06-05 12:12:01 AM","14","27","12","40.72953837","-73.98426726"
"Watts St & Greenwich St","2013-06-05 12:12:01 AM","16","23","7","40.72405549","-74.00965965"
"Greenwich St & N Moore St","2013-06-05 12:12:01 AM","26","31","3","40.72043411","-74.01020609"
"Reade Street & Broadway","2013-06-05 12:12:01 AM","37","39","1","40.71450451","-74.00562789"
"Pike St & Monroe St","2013-06-05 12:12:01 AM","0","27","25","40.71173107","-73.99193043"
"Cherry Street","2013-06-05 12:12:01 AM","4","24","17","40.71219906","-73.97948148"
"W 20 Street & 7 Avenue","2013-06-05 12:12:01 AM","27","31","3","40.74238787","-73.99726235"
"Washington Pl & Broadway","2013-06-05 12:12:01 AM","23","27","3","40.72903917","-73.99404649"
"Sullivan St & Washington Sq","2013-06-05 12:12:01 AM","19","36","13","40.73047747","-73.99906065"
"Old Slip and Front Street","2013-06-05 12:12:01 AM","19","37","14","40.7037992","-74.00838676"
"Avenue D & E 12 Street","2013-06-05 12:12:01 AM","7","24","12","40.72580614","-73.97422494"
"Madison & Clinton","2013-06-05 12:12:01 AM","18","27","9","40.71269042","-73.98776323"
"Stanton St & Mangin St","2013-06-05 12:12:01 AM","5","19","14","40.71782143","-73.97628939"
"Columbia St & Rivington St","2013-06-05 12:12:01 AM","11","29","15","40.71739973","-73.98016555"
"Clinton Av & Flushing Av","2013-06-05 12:12:01 AM","7","23","16","40.69794","-73.96986848"
"Monroe St & Bedford Av","2013-06-05 12:12:01 AM","3","23","17","40.6851443","-73.95380904"
"W 13 Street & 6 Avenue","2013-06-05 12:12:01 AM","27","35","7","40.73649403","-73.99704374"
"Bank St & Hudson St","2013-06-05 12:12:01 AM","1","27","22","40.73652889","-74.00618026"
"W Houston St & Hudson St","2013-06-05 12:12:01 AM","30","35","3","40.72873888","-74.00748842"
"West Broadway & Spring St","2013-06-05 12:12:01 AM","14","42","21","40.72490985","-74.00154702"
"Rivington St and Ridge St","2013-06-05 12:12:01 AM","8","23","9","40.71850211","-73.98329859"
"Clinton St & Grand St","2013-06-05 12:12:01 AM","8","28","19","40.71559509","-73.9870295"
"Front St & Maiden Ln","2013-06-05 12:12:01 AM","9","39","26","40.70530954","-74.00612572"
"W 56 Street and 6 Avenue","2013-06-05 12:12:01 AM","29","36","7","40.76340613","-73.97722479"
"S Portland Av & Hanson Pl","2013-06-05 12:12:01 AM","4","27","16","40.68539567","-73.97431458"
"Myrtle Av & Emerson Pl","2013-06-05 12:12:01 AM","5","31","22","40.69363137","-73.96223558"
"Bayard St & Baxter St","2013-06-05 12:12:01 AM","24","43","14","40.71602118","-73.99974372"
"Bialystoker Pl & Delancey St","2013-06-05 12:12:01 AM","6","23","15","40.71622644","-73.98261206"
"E 11 Street & Broadway","2013-06-05 12:12:01 AM","23","26","2","40.73261787","-73.99158043"
"Christopher & Greenwich St","2013-06-05 12:12:01 AM","2","36","32","40.73291553","-74.00711384"
"E 47 St and Park Av","2013-06-05 12:12:01 AM","51","55","1","40.75510267","-73.97498696"
"William St & Pine St","2013-06-05 12:12:01 AM","36","39","2","40.70717936","-74.00887308"
"Allen St & Hester St","2013-06-05 12:12:01 AM","24","43","16","40.71605866","-73.99190759"
"Broadway and W 37 Street","2013-06-05 12:12:01 AM","48","57","5","40.75172632","-73.98753523"
"West Thames Street","2013-06-05 12:12:01 AM","5","48","40","40.70834698","-74.01713445"
"Lafayette Av & Classon Av","2013-06-05 12:12:01 AM","11","27","13","40.68900443","-73.96023854"
"Fulton St & Grand Av","2013-06-05 12:12:01 AM","7","31","22","40.68223166","-73.9614583"
"Clinton Av & Myrtle Av","2013-06-05 12:12:01 AM","4","33","25","40.693261","-73.968896"
"E 53 St and Lexington Av","2013-06-05 12:12:01 AM","31","34","0","40.75828065","-73.97069431"
"Carmine St & 6 Av","2013-06-05 12:12:01 AM","7","39","30","40.73038599","-74.00214988"
"Washington Pl & 6 Av","2013-06-05 12:12:01 AM","18","35","16","40.73224119","-74.00026394"
"Franklin & Myrtle Ave","2013-06-05 12:12:01 AM","0","27","23","40.694528","-73.958089"
"Willoughby Av & Walworth","2013-06-05 12:12:01 AM","1","19","17","40.69331716","-73.95381995"
"Mercer St & Bleecker St","2013-06-05 12:12:01 AM","17","30","12","40.72679454","-73.99695094"
"John St & William St","2013-06-05 12:12:01 AM","36","43","6","40.70862144","-74.00722156"
"6 Avenue & Canal Street","2013-06-05 12:12:01 AM","43","47","2","40.72243797","-74.00566443"
"W 4 St & 7 Av South","2013-06-05 12:12:01 AM","33","39","4","40.73401143","-74.00293877"
"University Pl & E 14 St","2013-06-05 12:12:01 AM","11","36","20","40.73492695","-73.99200509"
"Greenwich Av & 7 Av","2013-06-05 12:12:01 AM","20","41","19","40.73625106","-74.00083692"
"Fulton St & Waverly Av","2013-06-05 12:12:01 AM","5","31","22","40.68317813","-73.9659641"
"Centre St & Worth St","2013-06-05 12:12:01 AM","36","43","4","40.71494807","-74.00234482"
"Centre St & Chambers St","2013-06-05 12:12:01 AM","14","39","24","40.71273266","-74.0046073"
"Broadway and Berry","2013-06-05 12:12:01 AM","1","27","25","40.71044554","-73.96525063"
"Duffield St & Willoughby St","2013-06-05 12:12:01 AM","13","31","18","40.69221589","-73.9842844"
"Clark St & Henry St","2013-06-05 12:12:01 AM","6","31","24","40.69760127","-73.99344559"
"Jay St and Tech Pl","2013-06-05 12:12:01 AM","16","35","19","40.69507866","-73.9872478"
"E 5 Street & Avenue C","2013-06-05 12:12:01 AM","11","31","19","40.72299208","-73.97995466"
"E 9 Street & Avenue C","2013-06-05 12:12:01 AM","0","36","32","40.72521311","-73.97768752"
"Bond St & Schermerhorn St","2013-06-05 12:12:01 AM","6","30","17","40.68807003","-73.98410637"
"Lefferts Pl & Franklin Av","2013-06-05 12:12:01 AM","8","25","14","40.680342423","-73.9557689392"
"Fulton St & Clermont Av","2013-06-05 12:12:01 AM","8","27","18","40.68415748","-73.96922273"
"Atlantic Av & Furman St","2013-06-05 12:12:01 AM","6","31","23","40.69165183","-73.9999786"
"St. James Pl & Lafayette Av","2013-06-05 12:12:01 AM","8","26","18","40.68851534","-73.9647628"
"Pitt St & Stanton St","2013-06-05 12:12:01 AM","9","15","4","40.71926081","-73.98178024"
"Allen St & Rivington St","2013-06-05 12:12:01 AM","6","42","32","40.72019576","-73.98997825"
"Broadway & E 22 St","2013-06-05 12:12:01 AM","37","42","4","40.7403432","-73.98955109"
"E 2 Street and 2 Avenue","2013-06-05 12:12:01 AM","0","31","29","40.72502876","-73.99069656"
"9 Avenue & W 14 Street","2013-06-05 12:12:01 AM","17","39","21","40.7405826","-74.00550867"
"Hicks St & Montague St","2013-06-05 12:12:01 AM","2","34","26","40.69512845","-73.99595065"
"Cadman Plz W & Middagh","2013-06-05 12:12:01 AM","19","23","2","40.70010145","-73.99104388"
"Market St & Cherry St","2013-06-05 12:12:01 AM","3","23","16","40.71076228","-73.99400398"
"Suffolk St & Stanton St","2013-06-05 12:12:01 AM","10","35","20","40.72066442","-73.98517977"
"E 6 Street & Avenue D","2013-06-05 12:12:01 AM","1","23","22","40.72228087","-73.97668709"
"Forsyth St & Canal St","2013-06-05 12:12:01 AM","20","29","9","40.7158155","-73.99422366"
"Pearl St & Anchorage Pl","2013-06-05 12:12:01 AM","12","24","11","40.70281858","-73.98765762"
"Pearl St & Hanover Sq","2013-06-05 12:12:01 AM","28","42","11","40.7047177","-74.00926027"
"Cumberland St & Lafayette","2013-06-05 12:12:01 AM","17","31","13","40.68753406","-73.97265183"
"Barclay St & Church St","2013-06-05 12:12:01 AM","5","47","34","40.71291224","-74.01020234"
"Front St & Gold St","2013-06-05 12:12:01 AM","4","23","17","40.70224","-73.982578"
"Carlton Av & Park Av","2013-06-05 12:12:01 AM","4","23","15","40.69580705","-73.97355569"
"Clermont Av & Lafayette Av","2013-06-05 12:12:01 AM","8","23","13","40.68764484","-73.96968902"
"Clermont Av & Park Av","2013-06-05 12:12:01 AM","7","19","11","40.69573398","-73.97129668"
"11 Avenue and W 59 Street","2013-06-05 12:12:01 AM","14","55","33","40.7714846","-73.99040196"
"W 54 St & 9 Av","2013-06-05 12:12:01 AM","30","39","8","40.76584941","-73.98690506"
"West St & Chambers St","2013-06-05 12:12:01 AM","4","31","24","40.71754834","-74.01322069"
"State Street","2013-06-05 12:12:01 AM","36","49","12","40.70251526","-74.01427023"
"E 3 Street & 1 Avenue","2013-06-05 12:12:01 AM","5","31","23","40.72467721","-73.98783413"
"York Street & Jay Street","2013-06-05 12:12:01 AM","6","27","18","40.7014851","-73.98656928"
"Hanover Pl & Livingston St","2013-06-05 12:12:01 AM","5","30","23","40.68864636","-73.98263429"
"E 7 Street & Avenue A","2013-06-05 12:12:01 AM","2","31","28","40.72621788","-73.98379855"
"E 13 Street & Avenue A","2013-06-05 12:12:01 AM","7","39","30","40.72955361","-73.98057249"
"9 Avenue & W 18 Street","2013-06-05 12:12:01 AM","6","27","20","40.74317449","-74.00366443"
"W 21 Street & 6 Avenue","2013-06-05 12:12:01 AM","44","47","1","40.74173969","-73.99415556"
"Hancock St & Bedford Av","2013-06-05 12:12:01 AM","2","27","23","40.68216564","-73.95399026"
"Macon St & Nostrand Av","2013-06-05 12:12:01 AM","12","27","12","40.6809833854","-73.9500479759"
"St Marks & 1 Av","2013-06-05 12:12:01 AM","5","27","18","40.72779126","-73.98564945"
"E 4 Street & 2 Avenue","2013-06-05 12:12:01 AM","4","39","27","40.7262807","-73.98978041"
"E 45 St & 3 Av","2013-06-05 12:12:01 AM","32","32","0","40.75255434","-73.97282625"
"E 52 Street & 2 Avenue","2013-06-05 12:12:01 AM","16","34","15","40.7560191","-73.96744628"
"W 27 St & 7 Av","2013-06-05 12:12:01 AM","50","51","0","40.7468416","-73.99445897"
"Bedford and South 9th","2013-06-05 12:12:01 AM","7","23","13","40.70853074","-73.96408963"
"Broadway & W 24 Street","2013-06-05 12:12:01 AM","25","48","22","40.7423543","-73.98915076"
"E 10 Street & Avenue A","2013-06-05 12:12:01 AM","34","36","1","40.72740794","-73.98142006"
"W 24 Street & 7 Avenue","2013-06-05 12:12:01 AM","35","39","2","40.74487634","-73.99529885"
"8  Av & W 57 St","2013-06-05 12:12:01 AM","29","31","0","40.76370739","-73.9851615"
"W 37 St & 10 Av","2013-06-05 12:12:01 AM","15","31","12","40.75660359","-73.9979009"
"52 St & 9 Av","2013-06-05 12:12:01 AM","21","31","10","40.76461837","-73.98789473"
"W 49 Street & 8 Avenue","2013-06-05 12:12:01 AM","55","59","2","40.76227205","-73.98788205"
"W 22 St & 8 Av","2013-06-05 12:12:01 AM","27","39","10","40.74475148","-73.99915362"
"E 51 Street and 1 Avenue","2013-06-05 12:12:01 AM","17","35","17","40.75455731","-73.96592976"
"1 Avenue & E 44 Street","2013-06-05 12:12:01 AM","36","39","2","40.75001986","-73.96905301"
"E 53 St and Madison Av","2013-06-05 12:12:01 AM","31","35","1","40.7597108","-73.97402311"
"Broadway & W 57 st","2013-06-05 12:12:01 AM","15","59","40","40.76695317","-73.98169333"
"W 22 Street & 11 Avenue","2013-06-05 12:12:01 AM","11","27","13","40.74806176","-74.00723188"
"W 18 Street & 11 Avenue","2013-06-05 12:12:01 AM","20","21","1","40.74522724","-74.00797904"
"S 4 St & Wythe Av","2013-06-05 12:12:01 AM","6","23","16","40.71285887","-73.96590294"
"E 20 Street & 2 Avenue","2013-06-05 12:12:01 AM","35","39","1","40.73587678","-73.98205027"
"W 22 Street & 10 Avenue","2013-06-05 12:12:01 AM","33","47","11","40.74691959","-74.00451887"
"9 Avenue & W 16 Street","2013-06-05 12:12:01 AM","24","25","1","40.74206539","-74.00443172"
"E 56 Street & 3 Avenue","2013-06-05 12:12:01 AM","12","50","32","40.75934501","-73.96759673"
"Broadway & W 41 Street","2013-06-05 12:12:01 AM","29","39","10","40.75513557","-73.98658032"
"W 25 St & 6 Av","2013-06-05 12:12:01 AM","20","35","13","40.74395411","-73.99144871"
"Dean Street and 4 Avenue","2013-06-05 12:12:01 AM","1","34","31","40.68312489","-73.97895137"
"Broadway & W 55 Street","2013-06-05 12:12:01 AM","46","59","6","40.7652654","-73.98192338"
"Broadway & W 53 Street","2013-06-05 12:12:01 AM","54","57","3","40.76344058","-73.98268129"
"W 20 Street and 8 Avenue","2013-06-05 12:12:01 AM","32","37","4","40.74345335","-74.00004031"
"Grand St & Havemeyer St","2013-06-05 12:12:01 AM","8","27","16","40.71286844","-73.95698119"
"E 32 St & Park Av","2013-06-05 12:12:01 AM","40","41","0","40.7457121","-73.98194829"
"Rivington St & Chrystie St","2013-06-05 12:12:01 AM","5","42","31","40.72110063","-73.9919254"
"5 Avenue and E 29 Street","2013-06-05 12:12:01 AM","45","47","2","40.7451677","-73.98683077"
"E 16 Street & Irving Place","2013-06-05 12:12:01 AM","18","36","15","40.73524276","-73.98758561"
"E 31 Street and 3 Avenue","2013-06-05 12:12:01 AM","24","47","21","40.74394314","-73.97966069"
"W 41 Street and 8 Avenue","2013-06-05 12:12:01 AM","28","59","26","40.75640548","-73.9900262"
"11 Avenue and W 41 Street","2013-06-05 12:12:01 AM","18","31","11","40.76030096","-73.99884222"
"9 Av & W 45 St","2013-06-05 12:12:01 AM","21","31","8","40.76019252","-73.9912551"
"W 53 Street & 10 Avenue","2013-06-05 12:12:01 AM","13","27","12","40.76669671","-73.99061728"
"S 3 St & Bedford","2013-06-05 12:12:01 AM","5","25","17","40.71260486","-73.96264403"
"W 15 Street and 7 Avenue","2013-06-05 12:12:01 AM","1","39","35","40.73935542","-73.99931783"
"E 12 Street & 3 Avenue","2013-06-05 12:12:01 AM","12","35","20","40.73223272","-73.98889957"
"W 44 Street & 5 Avenue","2013-06-05 12:12:01 AM","41","44","2","40.75500254","-73.98014437"
"W 37 St & 5 Av","2013-06-05 12:12:01 AM","37","39","1","40.75038009","-73.98338988"
"Broadway & W 29 Street","2013-06-05 12:12:01 AM","25","39","12","40.7462009","-73.98855723"
"E 20 Street & FDR Drive","2013-06-05 12:12:01 AM","6","36","23","40.73314259","-73.97573881"
"W 39 Street & 9 Avenue","2013-06-05 12:12:01 AM","38","41","3","40.75645824","-73.99372222"
"10 Av & W 28 St","2013-06-05 12:12:01 AM","20","37","14","40.75066386","-74.00176802"
"W 35 Street and 8 Avenue","2013-06-05 12:12:01 AM","55","59","0","40.75275056","-73.99282379"
"E 24 St & Park Av South","2013-06-05 12:12:01 AM","50","53","3","40.74096374","-73.98602213"
"W 33 Street & 7 Avenue","2013-06-05 12:12:01 AM","22","49","25","40.75019995","-73.99093085"
"W 45 Street and 6 Avenue","2013-06-05 12:12:01 AM","34","34","0","40.7568001","-73.98291153"
"W 26 Street and 8 Avenue","2013-06-05 12:12:01 AM","34","35","0","40.74734825","-73.99723551"
"W 47 Street and 10 Avenue","2013-06-05 12:12:01 AM","13","25","11","40.76269882","-73.99301222"
"E 16 Street & 5 Avenue","2013-06-05 12:12:01 AM","43","46","2","40.73726186","-73.99238967"
"E 17 Street and Broadway","2013-06-05 12:12:01 AM","54","59","2","40.73704984","-73.99009296"
"Broadway & W 32 Street","2013-06-05 12:12:01 AM","30","30","0","40.74854862","-73.98808416"
"Broadway & W 51 Street","2013-06-05 12:12:01 AM","49","49","0","40.76228826","-73.98336183"
"FDR Drive and E 35 Street","2013-06-05 12:12:01 AM","16","43","24","40.744219","-73.97121214"
"E 20 St & Park Av","2013-06-05 12:12:01 AM","26","29","2","40.73827428","-73.98751968"
"1 Avenue & E 15 Street","2013-06-05 12:12:01 AM","6","45","32","40.73221853","-73.98165557"
"6 Avenue & W 33 Street","2013-06-05 12:12:01 AM","32","36","4","40.74901271","-73.98848395"
"E 25 St & 2 Av","2013-06-05 12:12:01 AM","24","47","20","40.73912601","-73.97973776"
"W 46 Street & 11 Avenue","2013-06-05 12:12:01 AM","17","24","6","40.76341379","-73.99667444"
"9 Avenue & W 22 Street","2013-06-05 12:12:01 AM","2","36","29","40.7454973","-74.00197139"
"W 51 Street and 6 Avenue","2013-06-05 12:12:01 AM","17","51","32","40.7606597","-73.98042047"
"E 14 Street & Avenue B","2013-06-05 12:12:01 AM","0","33","28","40.72938685","-73.97772429"
"W 29 Street & 9 Avenue","2013-06-05 12:12:01 AM","22","27","5","40.7500727","-73.99839279"
"W 59 Street and 10 Avenue","2013-06-05 12:12:01 AM","4","27","20","40.77044059","-73.98780222"
"12 Avenue and W 40 Street","2013-06-05 12:12:01 AM","24","53","26","40.76087502","-74.00277668"
"W 43 Street & 10 Avenue","2013-06-05 12:12:01 AM","23","35","9","40.76009437","-73.99461843"
"Pershing Square S","2013-06-05 12:12:01 AM","56","59","1","40.75149263","-73.97798848"
"E 39 Street and 2 Avenue","2013-06-05 12:12:01 AM","30","39","5","40.74780373","-73.9734419"
"Pershing Square N","2013-06-05 12:12:01 AM","56","61","1","40.75188406","-73.97770164"
"W 52 Street & 5 Avenue","2013-06-05 12:12:01 AM","39","39","0","40.75992262","-73.97648516"
"8 Avenue and W 31 Street","2013-06-05 12:12:01 AM","33","67","29","40.75044999","-73.99481051"
"E 51 St & Lexington Av","2013-06-05 12:12:01 AM","44","51","5","40.75714758","-73.97207836"
"W 38 St & 8 Av","2013-06-05 12:12:01 AM","48","51","2","40.75466591","-73.99138152"
"W 43 Street & 6 Avenue","2013-06-05 12:12:01 AM","57","57","0","40.75527307","-73.98316936"
"W 34 Street & 11 Avenue","2013-06-05 12:12:01 AM","24","39","12","40.75594159","-74.0021163"
"E 33 St & 5 Av","2013-06-05 12:12:01 AM","41","43","2","40.74765947","-73.98490707"
"E 33 St & 1 Av","2013-06-05 12:12:01 AM","40","59","11","40.74315566","-73.97434726"
"2 Av & E 30 St","2013-06-05 12:12:01 AM","20","39","16","40.74290902","-73.97706058"
"W 42 Street and 8 Avenue","2013-06-05 12:12:01 AM","22","39","14","40.7575699","-73.99098507"
"DeKalb Av & S Portland Av","2013-06-05 12:12:01 AM","3","36","27","40.68981035","-73.97493121"
"Forsyth St and Broome St","2013-06-05 12:12:01 AM","3","39","29","40.71893904","-73.99266288"
"South 5 Pl and South 4 St","2013-06-05 12:12:01 AM","13","43","26","40.710451","-73.960876"
"Broadway & W 39 St","2013-06-05 12:12:01 AM","43","50","5","40.75299641","-73.98721619"
"Water Whitehall Plaza","2013-06-05 12:12:01 AM","27","31","3","40.70255065","-74.0127234"
"1 Avenue and E 30 Street","2013-06-05 12:12:01 AM","17","29","11","40.74144387","-73.97536082"
"Lexington Av and E 24 St","2013-06-05 12:12:01 AM","31","39","4","40.74025878","-73.98409214"
"W 49 Street & 5 Avenue","2013-06-05 12:12:01 AM","37","39","0","40.75795248","-73.97787642"
"Metropolitan and Bedford","2013-06-05 12:12:01 AM","8","31","20","40.71534825","-73.96024116"
"Lexington Av and E 26 St","2013-06-05 12:12:01 AM","25","39","13","40.74147286","-73.98320928"
"E 23 St & 1 Av","2013-06-05 12:12:01 AM","12","27","10","40.736502","-73.97809472"
"E 30 St and Park Av South","2013-06-05 12:12:01 AM","31","38","4","40.74444921","-73.98303529"
"Front St & Washington St","2013-06-05 12:12:01 AM","18","30","12","40.70255088","-73.98940236"
"7th Av & Farragut St","2013-06-05 12:12:01 AM","7","15","8","40.69892054","-73.97332996"
"1 Av & 18 St","2013-06-05 12:12:01 AM","3","30","21","40.73416059","-73.98024289"
"Spring St & 6 Av","2013-06-05 12:12:01 AM","25","36","9","40.7255002","-74.00445139"
"Railroad Av & Kay Av","2013-06-05 12:12:01 AM","1","12","10","40.70531194","-73.97100056"
"Central Park South & 6 Av","2013-06-05 12:12:01 AM","2","49","46","40.76590936","-73.97634151"
"W 52 St & 11 Av","2013-06-05 12:27:01 AM","6","39","24","40.76727216","-73.99392888"
"Franklin & West Broadway","2013-06-05 12:27:01 AM","25","33","7","40.71911552","-74.00666661"
"St. James Pl & Pearl St","2013-06-05 12:27:01 AM","8","26","18","40.71117416","-74.00016545"
"Atlantic Av & Ft. Greene Pl","2013-06-05 12:27:01 AM","0","62","7","40.68382604","-73.97632328"
"W 17 Street & 8 Avenue","2013-06-05 12:27:01 AM","18","39","16","40.74177603","-74.00149746"
"Park Av & St. Edward's St","2013-06-05 12:27:01 AM","9","19","9","40.69608941","-73.97803415"
"Lexington Av & Classon Av","2013-06-05 12:27:01 AM","2","19","16","40.68676793","-73.95928168"
"Barrow St & Hudson St","2013-06-05 12:27:01 AM","4","31","24","40.73172428","-74.00674436"
"MacDougal St & Prince St","2013-06-05 12:27:01 AM","7","30","20","40.72710258","-74.00297088"
"Henry St & Grand St","2013-06-05 12:27:01 AM","13","30","15","40.71425541","-73.98130841"
"Clinton St & Joralemon St","2013-06-05 12:27:01 AM","1","25","21","40.69239502","-73.99337909"
"Nassau St & Navy St","2013-06-05 12:27:01 AM","8","19","9","40.69839895","-73.98068914"
"Hudson St and Reade St","2013-06-05 12:27:01 AM","23","39","11","40.71625008","-74.0091059"
"Greenwich St & Warren St","2013-06-05 12:27:01 AM","25","33","6","40.71542197","-74.01121978"
"E 2 Street & Avenue C","2013-06-05 12:27:01 AM","4","31","26","40.7208736","-73.98085795"
"Cleveland Pl & Spring St","2013-06-05 12:27:01 AM","26","33","4","40.7218158","-73.99720307"
"Warren St & Church St","2013-06-05 12:27:01 AM","8","29","19","40.71473993","-74.00910627"
"Henry St & Atlantic Av","2013-06-05 12:27:01 AM","0","23","19","40.69089272","-73.99612349"
"LaGuardia Pl & W 3 St","2013-06-05 12:27:01 AM","17","35","14","40.72917025","-73.99810231"
"E 47 Street and 2 Avenue","2013-06-05 12:27:01 AM","44","47","3","40.75323098","-73.97032517"
"E 39 St & 3 Av","2013-06-05 12:27:01 AM","41","45","3","40.7489006","-73.97604882"
"W 18 St & 6 Av","2013-06-05 12:27:01 AM","46","47","0","40.73971301","-73.99456405"
"E 25 Street and 1 Avenue","2013-06-05 12:27:01 AM","18","30","8","40.7381765","-73.97738662"
"Liberty St & Broadway","2013-06-05 12:27:01 AM","25","45","18","40.70905623","-74.01043382"
"W 16 St and the High Line","2013-06-05 12:27:01 AM","15","28","12","40.74334935","-74.00681753"
"Columbia Hts & Cranberry","2013-06-05 12:27:01 AM","7","23","14","40.70037867","-73.99548059"
"Old Fulton Street","2013-06-05 12:27:01 AM","25","39","11","40.70277159","-73.99383605"
"Gallatin Pl & Livingston St","2013-06-05 12:27:01 AM","11","39","26","40.69028437","-73.98707105"
"W 13 Street and 7 Avenue","2013-06-05 12:27:01 AM","11","33","18","40.73781509","-73.99994661"
"Spruce St & Nassau St","2013-06-05 12:27:01 AM","19","31","9","40.71146364","-74.00552427"
"W 14 St & the High Line","2013-06-05 12:27:01 AM","35","37","1","40.74195138","-74.00803013"
"Great Jones Street","2013-06-05 12:27:01 AM","23","27","3","40.72743423","-73.99379025"
"Cadman Plz E & Tillary","2013-06-05 12:27:01 AM","2","23","20","40.69597683","-73.99014892"
"Joralemon St & Adams St","2013-06-05 12:27:01 AM","27","39","12","40.69246277","-73.98963911"
"St. Mark's Pl & 2 Av","2013-06-05 12:27:01 AM","0","39","36","40.7284186","-73.98713956"
"E 11 Street & 2 Avenue","2013-06-05 12:27:01 AM","7","39","28","40.73047309","-73.98672378"
"Bank St & Washington St","2013-06-05 12:27:01 AM","4","31","23","40.7361967","-74.00859207"
"Wiloughby St & Fleet St","2013-06-05 12:27:01 AM","14","31","12","40.69196566","-73.9813018"
"Flushing Av & Carlton Av","2013-06-05 12:27:01 AM","7","23","11","40.69788349","-73.97350332"
"Flatbush Av & Fulton St","2013-06-05 12:27:01 AM","11","19","8","40.68866384","-73.98051836"
"Willoughby Av & Hall St","2013-06-05 12:27:01 AM","12","31","19","40.69196035","-73.96536851"
"Myrtle Av & St. Edward's St","2013-06-05 12:27:01 AM","5","23","15","40.69327018","-73.97703874"
"Perry St and Bleecker St","2013-06-05 12:27:01 AM","2","20","14","40.73535398","-74.00483091"
"Laight St & Hudson St","2013-06-05 12:27:01 AM","6","23","17","40.72185379","-74.00771779"
"Harrison St and Hudson St","2013-06-05 12:27:01 AM","25","27","2","40.71870987","-74.0090009"
"Lafayette St & Jersey St","2013-06-05 12:27:01 AM","38","40","1","40.72456089","-73.99565293"
"Mott St & Prince St","2013-06-05 12:27:01 AM","7","27","17","40.72317958","-73.99480012"
"MacDougal St & Washington Sq","2013-06-05 12:27:01 AM","24","33","8","40.73226398","-73.99852205"
"W 13 Street & 5 Avenue","2013-06-05 12:27:01 AM","45","47","1","40.73543934","-73.99453948"
"W 11 Street & 6 Avenue","2013-06-05 12:27:01 AM","26","31","3","40.73532427","-73.99800419"
"Clinton St & Tillary St","2013-06-05 12:27:01 AM","1","31","22","40.6963992845","-73.9914025057"
"Lispenard St & Broadway","2013-06-05 12:27:01 AM","12","39","24","40.71939226","-74.00247214"
"DeKalb Av & Vanderbilt Av","2013-06-05 12:27:01 AM","4","23","18","40.68940747","-73.96885458"
"South St and Whitehall St","2013-06-05 12:27:01 AM","22","39","13","40.70122128","-74.01234218"
"Broad St and Bridge St","2013-06-05 12:27:01 AM","34","35","1","40.70365182","-74.01167797"
"Johnson St & Gold St","2013-06-05 12:27:01 AM","1","27","23","40.69474881","-73.98362464"
"Washington Park","2013-06-05 12:27:01 AM","10","24","10","40.69178232","-73.97372989"
"Maiden Lane & Pearl St","2013-06-05 12:27:01 AM","9","27","18","40.70706456","-74.00731853"
"Stanton St & Chrystie St","2013-06-05 12:27:01 AM","11","35","19","40.72229346","-73.99147535"
"Avenue D & E 8 Street","2013-06-05 12:27:01 AM","5","24","14","40.72368361","-73.97574813"
"Broadway & W 36 St","2013-06-05 12:27:01 AM","56","57","0","40.75097711","-73.98765428"
"Howard St & Centre St","2013-06-05 12:27:01 AM","1","27","20","40.71910537","-73.99973337"
"Adelphi St & Myrtle Av","2013-06-05 12:27:01 AM","2","23","17","40.69308257","-73.97178913"
"Ashland Pl & Hanson Pl","2013-06-05 12:27:01 AM","3","37","31","40.68528172","-73.97805813"
"Lafayette Av & Ft. Greene Pl","2013-06-05 12:27:01 AM","8","31","20","40.68691865","-73.976682"
"Washington Av & Greene Av","2013-06-05 12:27:01 AM","6","19","13","40.68650065","-73.96563307"
"Duane St & Greenwich St","2013-06-05 12:27:01 AM","19","25","4","40.71748752","-74.0104554"
"Concord St & Bridge St","2013-06-05 12:27:01 AM","2","19","16","40.69766564","-73.98476437"
"Sands St & Gold St","2013-06-05 12:27:01 AM","11","19","8","40.69986937","-73.98271933"
"E 10 Street & 5 Avenue","2013-06-05 12:27:01 AM","26","31","4","40.73331967","-73.99510132"
"Kent & S 11","2013-06-05 12:27:01 AM","11","27","16","40.70827295","-73.96834101"
"Broadway and E 14 Street","2013-06-05 12:27:01 AM","39","47","7","40.73454567","-73.99074142"
"Monroe St & Classon Av","2013-06-05 12:27:01 AM","1","18","14","40.6845683","-73.95881081"
"2 Avenue & E 58 Street","2013-06-05 12:27:01 AM","3","28","20","40.76020258","-73.96478473"
"Gouverneur St & Madison St","2013-06-05 12:27:01 AM","14","23","9","40.71345221","-73.98398567"
"Lafayette St & E 8 St","2013-06-05 12:27:01 AM","51","54","2","40.73028666","-73.9907647"
"Washington Square East","2013-06-05 12:27:01 AM","1","31","27","40.73049393","-73.9957214"
"Pike St & East Broadway","2013-06-05 12:27:01 AM","7","24","15","40.71406667","-73.99293911"
"Division Street & Bowery","2013-06-05 12:27:01 AM","14","35","16","40.71413089","-73.9970468"
"3rd Avenue & Flatbush Avenue","2013-06-05 12:27:01 AM","13","35","17","40.68683208","-73.9796772"
"Cooper Sq & E 7 St","2013-06-05 12:27:01 AM","21","42","19","40.7289841","-73.99051868"
"E 2 Street & Avenue B","2013-06-05 12:27:01 AM","5","37","30","40.72217444","-73.98368779"
"Avenue D & E 3 Street","2013-06-05 12:27:01 AM","1","23","20","40.72082834","-73.97793172"
"Mercer St & Spring St","2013-06-05 12:27:01 AM","30","31","0","40.72362738","-73.99949601"
"Broadway & Battery Pl","2013-06-05 12:27:01 AM","9","36","20","40.70463334","-74.01361706"
"E 58 Street and 3 Avenue","2013-06-05 12:27:01 AM","9","33","22","40.76095756","-73.96724467"
"Cliff St & Fulton St","2013-06-05 12:27:01 AM","8","37","23","40.70823502","-74.00530063"
"Canal St & Rutgers St","2013-06-05 12:27:01 AM","13","31","17","40.71427487","-73.98990025"
"St. James Pl & Oliver St","2013-06-05 12:27:01 AM","18","27","7","40.71307916","-73.99851193"
"Murray St & West St","2013-06-05 12:27:01 AM","36","41","1","40.7149787","-74.013012"
"State St & Smith St","2013-06-05 12:27:01 AM","12","36","21","40.68926942","-73.98912867"
"Norfolk St & Broome St","2013-06-05 12:27:01 AM","29","31","2","40.7172274","-73.98802084"
"Allen St & E Houston St","2013-06-05 12:27:01 AM","3","39","32","40.72263214","-73.98887365"
"Washington Av & Park Av","2013-06-05 12:27:01 AM","1","23","19","40.69610226","-73.96751037"
"Montague St & Clinton St","2013-06-05 12:27:01 AM","1","39","34","40.69424674","-73.99215922"
"South St & Gouverneur La","2013-06-05 12:27:01 AM","21","29","7","40.70355377","-74.00670227"
"Fulton St and William St","2013-06-05 12:27:01 AM","17","42","24","40.70955958","-74.00653609"
"E 6 Street & Avenue B","2013-06-05 12:27:01 AM","4","27","21","40.72453734","-73.98185424"
"E 43 St & Vanderbilt Av","2013-06-05 12:27:01 AM","30","31","1","40.75320159","-73.9779874"
"Park Pl & Church S","2013-06-05 12:27:01 AM","29","35","4","40.71336124","-74.00937622"
"Church St & Leonard St","2013-06-05 12:27:01 AM","17","39","19","40.71743998","-74.00583475"
"Cadman Plz E & Red Cross","2013-06-05 12:27:01 AM","19","27","6","40.69991755","-73.98971773"
"Lawrence Street & Willoughby Street","2013-06-05 12:27:01 AM","20","39","17","40.69236178","-73.98631746"
"DeKalb Av & Hudson Av","2013-06-05 12:27:01 AM","26","51","23","40.689888","-73.981013"
"E 19 Street and 3 Avenue","2013-06-05 12:27:01 AM","12","35","21","40.73624527","-73.98473765"
"E 11 Street & 1 Avenue","2013-06-05 12:27:01 AM","15","27","11","40.72953837","-73.98426726"
"Watts St & Greenwich St","2013-06-05 12:27:01 AM","16","23","7","40.72405549","-74.00965965"
"Greenwich St & N Moore St","2013-06-05 12:27:01 AM","26","31","3","40.72043411","-74.01020609"
"Reade Street & Broadway","2013-06-05 12:27:01 AM","37","39","1","40.71450451","-74.00562789"
"Pike St & Monroe St","2013-06-05 12:27:01 AM","0","27","25","40.71173107","-73.99193043"
"Cherry Street","2013-06-05 12:27:01 AM","4","24","17","40.71219906","-73.97948148"
"W 20 Street & 7 Avenue","2013-06-05 12:27:01 AM","27","31","3","40.74238787","-73.99726235"
"Washington Pl & Broadway","2013-06-05 12:27:01 AM","24","27","3","40.72903917","-73.99404649"
"Sullivan St & Washington Sq","2013-06-05 12:27:01 AM","20","36","12","40.73047747","-73.99906065"
"Old Slip and Front Street","2013-06-05 12:27:01 AM","20","37","13","40.7037992","-74.00838676"
"Avenue D & E 12 Street","2013-06-05 12:27:01 AM","7","24","12","40.72580614","-73.97422494"
"Madison & Clinton","2013-06-05 12:27:01 AM","18","27","9","40.71269042","-73.98776323"
"Stanton St & Mangin St","2013-06-05 12:27:01 AM","5","19","14","40.71782143","-73.97628939"
"Columbia St & Rivington St","2013-06-05 12:27:01 AM","11","29","15","40.71739973","-73.98016555"
"Clinton Av & Flushing Av","2013-06-05 12:27:01 AM","7","23","16","40.69794","-73.96986848"
"Monroe St & Bedford Av","2013-06-05 12:27:01 AM","3","23","17","40.6851443","-73.95380904"
"W 13 Street & 6 Avenue","2013-06-05 12:27:01 AM","26","35","8","40.73649403","-73.99704374"
"Bank St & Hudson St","2013-06-05 12:27:01 AM","1","27","22","40.73652889","-74.00618026"
"W Houston St & Hudson St","2013-06-05 12:27:01 AM","30","35","3","40.72873888","-74.00748842"
"West Broadway & Spring St","2013-06-05 12:27:01 AM","14","42","21","40.72490985","-74.00154702"
"Rivington St and Ridge St","2013-06-05 12:27:01 AM","7","23","10","40.71850211","-73.98329859"
"Clinton St & Grand St","2013-06-05 12:27:01 AM","9","28","18","40.71559509","-73.9870295"
"Front St & Maiden Ln","2013-06-05 12:27:01 AM","9","39","26","40.70530954","-74.00612572"
"W 56 Street and 6 Avenue","2013-06-05 12:27:01 AM","29","36","7","40.76340613","-73.97722479"
"S Portland Av & Hanson Pl","2013-06-05 12:27:01 AM","4","27","16","40.68539567","-73.97431458"
"Myrtle Av & Emerson Pl","2013-06-05 12:27:01 AM","5","31","22","40.69363137","-73.96223558"
"Bayard St & Baxter St","2013-06-05 12:27:01 AM","25","43","14","40.71602118","-73.99974372"
"Bialystoker Pl & Delancey St","2013-06-05 12:27:01 AM","6","23","15","40.71622644","-73.98261206"
"E 11 Street & Broadway","2013-06-05 12:27:01 AM","23","26","2","40.73261787","-73.99158043"
"Christopher & Greenwich St","2013-06-05 12:27:01 AM","2","36","32","40.73291553","-74.00711384"
"E 47 St and Park Av","2013-06-05 12:27:01 AM","51","55","1","40.75510267","-73.97498696"
"William St & Pine St","2013-06-05 12:27:01 AM","37","39","1","40.70717936","-74.00887308"
"Allen St & Hester St","2013-06-05 12:27:01 AM","22","43","18","40.71605866","-73.99190759"
"Broadway and W 37 Street","2013-06-05 12:27:01 AM","48","57","5","40.75172632","-73.98753523"
"West Thames Street","2013-06-05 12:27:01 AM","4","48","41","40.70834698","-74.01713445"
"Lafayette Av & Classon Av","2013-06-05 12:27:01 AM","11","27","13","40.68900443","-73.96023854"
"Fulton St & Grand Av","2013-06-05 12:27:01 AM","7","31","22","40.68223166","-73.9614583"
"Clinton Av & Myrtle Av","2013-06-05 12:27:01 AM","4","33","25","40.693261","-73.968896"
"E 53 St and Lexington Av","2013-06-05 12:27:01 AM","31","34","0","40.75828065","-73.97069431"
"Carmine St & 6 Av","2013-06-05 12:27:01 AM","8","39","29","40.73038599","-74.00214988"
"Washington Pl & 6 Av","2013-06-05 12:27:01 AM","18","35","16","40.73224119","-74.00026394"
"Franklin & Myrtle Ave","2013-06-05 12:27:01 AM","0","27","23","40.694528","-73.958089"
"Willoughby Av & Walworth","2013-06-05 12:27:01 AM","1","19","17","40.69331716","-73.95381995"
"Mercer St & Bleecker St","2013-06-05 12:27:01 AM","17","30","12","40.72679454","-73.99695094"
"John St & William St","2013-06-05 12:27:01 AM","36","43","6","40.70862144","-74.00722156"
"6 Avenue & Canal Street","2013-06-05 12:27:01 AM","43","47","2","40.72243797","-74.00566443"
"W 4 St & 7 Av South","2013-06-05 12:27:01 AM","33","39","4","40.73401143","-74.00293877"
"University Pl & E 14 St","2013-06-05 12:27:01 AM","11","36","20","40.73492695","-73.99200509"
"Greenwich Av & 7 Av","2013-06-05 12:27:01 AM","20","41","19","40.73625106","-74.00083692"
"Fulton St & Waverly Av","2013-06-05 12:27:01 AM","5","31","22","40.68317813","-73.9659641"
"Centre St & Worth St","2013-06-05 12:27:01 AM","36","43","4","40.71494807","-74.00234482"
"Centre St & Chambers St","2013-06-05 12:27:01 AM","14","39","24","40.71273266","-74.0046073"
"Broadway and Berry","2013-06-05 12:27:01 AM","2","27","24","40.71044554","-73.96525063"
"Duffield St & Willoughby St","2013-06-05 12:27:01 AM","13","31","18","40.69221589","-73.9842844"
"Clark St & Henry St","2013-06-05 12:27:01 AM","6","31","24","40.69760127","-73.99344559"
"Jay St and Tech Pl","2013-06-05 12:27:01 AM","16","35","19","40.69507866","-73.9872478"
"E 5 Street & Avenue C","2013-06-05 12:27:01 AM","11","31","19","40.72299208","-73.97995466"
"E 9 Street & Avenue C","2013-06-05 12:27:01 AM","0","36","32","40.72521311","-73.97768752"
"Bond St & Schermerhorn St","2013-06-05 12:27:01 AM","6","30","17","40.68807003","-73.98410637"
"Lefferts Pl & Franklin Av","2013-06-05 12:27:01 AM","8","25","14","40.680342423","-73.9557689392"
"Fulton St & Clermont Av","2013-06-05 12:27:01 AM","8","27","18","40.68415748","-73.96922273"
"Atlantic Av & Furman St","2013-06-05 12:27:01 AM","6","31","23","40.69165183","-73.9999786"
"St. James Pl & Lafayette Av","2013-06-05 12:27:01 AM","8","26","18","40.68851534","-73.9647628"
"Pitt St & Stanton St","2013-06-05 12:27:01 AM","9","15","4","40.71926081","-73.98178024"
"Allen St & Rivington St","2013-06-05 12:27:01 AM","6","42","32","40.72019576","-73.98997825"
"Broadway & E 22 St","2013-06-05 12:27:01 AM","37","42","4","40.7403432","-73.98955109"
"E 2 Street and 2 Avenue","2013-06-05 12:27:01 AM","0","31","29","40.72502876","-73.99069656"
"9 Avenue & W 14 Street","2013-06-05 12:27:01 AM","17","39","21","40.7405826","-74.00550867"
"Hicks St & Montague St","2013-06-05 12:27:01 AM","2","34","26","40.69512845","-73.99595065"
"Cadman Plz W & Middagh","2013-06-05 12:27:01 AM","19","23","2","40.70010145","-73.99104388"
"Market St & Cherry St","2013-06-05 12:27:01 AM","1","23","18","40.71076228","-73.99400398"
"Suffolk St & Stanton St","2013-06-05 12:27:01 AM","10","35","20","40.72066442","-73.98517977"
"E 6 Street & Avenue D","2013-06-05 12:27:01 AM","1","23","22","40.72228087","-73.97668709"
"Forsyth St & Canal St","2013-06-05 12:27:01 AM","20","29","9","40.7158155","-73.99422366"
"Pearl St & Anchorage Pl","2013-06-05 12:27:01 AM","11","24","12","40.70281858","-73.98765762"
"Pearl St & Hanover Sq","2013-06-05 12:27:01 AM","27","42","12","40.7047177","-74.00926027"
"Cumberland St & Lafayette","2013-06-05 12:27:01 AM","17","31","13","40.68753406","-73.97265183"
"Barclay St & Church St","2013-06-05 12:27:01 AM","5","47","34","40.71291224","-74.01020234"
"Front St & Gold St","2013-06-05 12:27:01 AM","4","23","17","40.70224","-73.982578"
"Carlton Av & Park Av","2013-06-05 12:27:01 AM","4","23","15","40.69580705","-73.97355569"
"Clermont Av & Lafayette Av","2013-06-05 12:27:01 AM","7","23","14","40.68764484","-73.96968902"
"Clermont Av & Park Av","2013-06-05 12:27:01 AM","7","19","11","40.69573398","-73.97129668"
"11 Avenue and W 59 Street","2013-06-05 12:27:01 AM","14","55","33","40.7714846","-73.99040196"
"W 54 St & 9 Av","2013-06-05 12:27:01 AM","30","39","8","40.76584941","-73.98690506"
"West St & Chambers St","2013-06-05 12:27:01 AM","4","31","24","40.71754834","-74.01322069"
"State Street","2013-06-05 12:27:01 AM","36","49","12","40.70251526","-74.01427023"
"E 3 Street & 1 Avenue","2013-06-05 12:27:01 AM","4","31","24","40.72467721","-73.98783413"
"York Street & Jay Street","2013-06-05 12:27:01 AM","6","27","18","40.7014851","-73.98656928"
"Hanover Pl & Livingston St","2013-06-05 12:27:01 AM","5","30","23","40.68864636","-73.98263429"
"E 7 Street & Avenue A","2013-06-05 12:27:01 AM","2","31","28","40.72621788","-73.98379855"
"E 13 Street & Avenue A","2013-06-05 12:27:01 AM","8","39","29","40.72955361","-73.98057249"
"9 Avenue & W 18 Street","2013-06-05 12:27:01 AM","6","27","20","40.74317449","-74.00366443"
"W 21 Street & 6 Avenue","2013-06-05 12:27:01 AM","44","47","1","40.74173969","-73.99415556"
"Hancock St & Bedford Av","2013-06-05 12:27:01 AM","2","27","23","40.68216564","-73.95399026"
"Macon St & Nostrand Av","2013-06-05 12:27:01 AM","12","27","12","40.6809833854","-73.9500479759"
"St Marks & 1 Av","2013-06-05 12:27:01 AM","5","27","18","40.72779126","-73.98564945"
"E 4 Street & 2 Avenue","2013-06-05 12:27:01 AM","4","39","27","40.7262807","-73.98978041"
"E 45 St & 3 Av","2013-06-05 12:27:01 AM","32","32","0","40.75255434","-73.97282625"
"E 52 Street & 2 Avenue","2013-06-05 12:27:01 AM","16","34","15","40.7560191","-73.96744628"
"W 27 St & 7 Av","2013-06-05 12:27:01 AM","50","51","0","40.7468416","-73.99445897"
"Bedford and South 9th","2013-06-05 12:27:01 AM","7","23","13","40.70853074","-73.96408963"
"Broadway & W 24 Street","2013-06-05 12:27:01 AM","25","48","22","40.7423543","-73.98915076"
"E 10 Street & Avenue A","2013-06-05 12:27:01 AM","34","36","1","40.72740794","-73.98142006"
"W 24 Street & 7 Avenue","2013-06-05 12:27:01 AM","35","39","2","40.74487634","-73.99529885"
"8  Av & W 57 St","2013-06-05 12:27:01 AM","29","31","0","40.76370739","-73.9851615"
"W 37 St & 10 Av","2013-06-05 12:27:01 AM","15","31","12","40.75660359","-73.9979009"
"52 St & 9 Av","2013-06-05 12:27:01 AM","21","31","10","40.76461837","-73.98789473"
"W 49 Street & 8 Avenue","2013-06-05 12:27:01 AM","54","59","3","40.76227205","-73.98788205"
"W 22 St & 8 Av","2013-06-05 12:27:01 AM","24","39","13","40.74475148","-73.99915362"
"E 51 Street and 1 Avenue","2013-06-05 12:27:01 AM","17","35","17","40.75455731","-73.96592976"
"1 Avenue & E 44 Street","2013-06-05 12:27:01 AM","36","39","2","40.75001986","-73.96905301"
"E 53 St and Madison Av","2013-06-05 12:27:01 AM","31","35","1","40.7597108","-73.97402311"
"Broadway & W 57 st","2013-06-05 12:27:01 AM","14","59","41","40.76695317","-73.98169333"
"W 22 Street & 11 Avenue","2013-06-05 12:27:01 AM","11","27","13","40.74806176","-74.00723188"
"W 18 Street & 11 Avenue","2013-06-05 12:27:01 AM","20","21","1","40.74522724","-74.00797904"
"S 4 St & Wythe Av","2013-06-05 12:27:01 AM","6","23","16","40.71285887","-73.96590294"
"E 20 Street & 2 Avenue","2013-06-05 12:27:01 AM","35","39","1","40.73587678","-73.98205027"
"W 22 Street & 10 Avenue","2013-06-05 12:27:01 AM","34","47","10","40.74691959","-74.00451887"
"9 Avenue & W 16 Street","2013-06-05 12:27:01 AM","24","25","1","40.74206539","-74.00443172"
"E 56 Street & 3 Avenue","2013-06-05 12:27:01 AM","12","50","32","40.75934501","-73.96759673"
"Broadway & W 41 Street","2013-06-05 12:27:01 AM","29","39","10","40.75513557","-73.98658032"
"W 25 St & 6 Av","2013-06-05 12:27:01 AM","20","35","13","40.74395411","-73.99144871"
"Dean Street and 4 Avenue","2013-06-05 12:27:01 AM","1","34","31","40.68312489","-73.97895137"
"Broadway & W 55 Street","2013-06-05 12:27:01 AM","46","59","6","40.7652654","-73.98192338"
"Broadway & W 53 Street","2013-06-05 12:27:01 AM","54","57","3","40.76344058","-73.98268129"
"W 20 Street and 8 Avenue","2013-06-05 12:27:01 AM","32","37","4","40.74345335","-74.00004031"
"Grand St & Havemeyer St","2013-06-05 12:27:01 AM","8","27","16","40.71286844","-73.95698119"
"E 32 St & Park Av","2013-06-05 12:27:01 AM","40","41","0","40.7457121","-73.98194829"
"Rivington St & Chrystie St","2013-06-05 12:27:01 AM","3","42","33","40.72110063","-73.9919254"
"5 Avenue and E 29 Street","2013-06-05 12:27:01 AM","45","47","2","40.7451677","-73.98683077"
"E 16 Street & Irving Place","2013-06-05 12:27:01 AM","17","36","16","40.73524276","-73.98758561"
"E 31 Street and 3 Avenue","2013-06-05 12:27:01 AM","24","47","21","40.74394314","-73.97966069"
"W 41 Street and 8 Avenue","2013-06-05 12:27:01 AM","28","59","26","40.75640548","-73.9900262"
"11 Avenue and W 41 Street","2013-06-05 12:27:01 AM","18","31","11","40.76030096","-73.99884222"
"9 Av & W 45 St","2013-06-05 12:27:01 AM","21","31","8","40.76019252","-73.9912551"
"W 53 Street & 10 Avenue","2013-06-05 12:27:01 AM","13","27","12","40.76669671","-73.99061728"
"S 3 St & Bedford","2013-06-05 12:27:01 AM","6","25","16","40.71260486","-73.96264403"
"W 15 Street and 7 Avenue","2013-06-05 12:27:01 AM","2","39","34","40.73935542","-73.99931783"
"E 12 Street & 3 Avenue","2013-06-05 12:27:01 AM","12","35","20","40.73223272","-73.98889957"
"W 44 Street & 5 Avenue","2013-06-05 12:27:01 AM","42","44","1","40.75500254","-73.98014437"
"W 37 St & 5 Av","2013-06-05 12:27:01 AM","37","39","1","40.75038009","-73.98338988"
"Broadway & W 29 Street","2013-06-05 12:27:01 AM","25","39","12","40.7462009","-73.98855723"
"E 20 Street & FDR Drive","2013-06-05 12:27:01 AM","5","36","24","40.73314259","-73.97573881"
"W 39 Street & 9 Avenue","2013-06-05 12:27:01 AM","38","41","3","40.75645824","-73.99372222"
"10 Av & W 28 St","2013-06-05 12:27:01 AM","20","37","14","40.75066386","-74.00176802"
"W 35 Street and 8 Avenue","2013-06-05 12:27:01 AM","55","59","0","40.75275056","-73.99282379"
"E 24 St & Park Av South","2013-06-05 12:27:01 AM","50","53","3","40.74096374","-73.98602213"
"W 33 Street & 7 Avenue","2013-06-05 12:27:01 AM","14","49","35","40.75019995","-73.99093085"
"W 45 Street and 6 Avenue","2013-06-05 12:27:01 AM","34","34","0","40.7568001","-73.98291153"
"W 26 Street and 8 Avenue","2013-06-05 12:27:01 AM","32","35","1","40.74734825","-73.99723551"
"W 47 Street and 10 Avenue","2013-06-05 12:27:01 AM","13","25","11","40.76269882","-73.99301222"
"E 16 Street & 5 Avenue","2013-06-05 12:27:01 AM","43","46","2","40.73726186","-73.99238967"
"E 17 Street and Broadway","2013-06-05 12:27:01 AM","54","59","2","40.73704984","-73.99009296"
"Broadway & W 32 Street","2013-06-05 12:27:01 AM","30","30","0","40.74854862","-73.98808416"
"Broadway & W 51 Street","2013-06-05 12:27:01 AM","47","49","2","40.76228826","-73.98336183"
"FDR Drive and E 35 Street","2013-06-05 12:27:01 AM","16","43","24","40.744219","-73.97121214"
"E 20 St & Park Av","2013-06-05 12:27:01 AM","26","29","2","40.73827428","-73.98751968"
"1 Avenue & E 15 Street","2013-06-05 12:27:01 AM","6","45","32","40.73221853","-73.98165557"
"6 Avenue & W 33 Street","2013-06-05 12:27:01 AM","33","36","3","40.74901271","-73.98848395"
"E 25 St & 2 Av","2013-06-05 12:27:01 AM","24","47","20","40.73912601","-73.97973776"
"W 46 Street & 11 Avenue","2013-06-05 12:27:01 AM","17","24","6","40.76341379","-73.99667444"
"9 Avenue & W 22 Street","2013-06-05 12:27:01 AM","1","36","30","40.7454973","-74.00197139"
"W 51 Street and 6 Avenue","2013-06-05 12:27:01 AM","17","51","32","40.7606597","-73.98042047"
"E 14 Street & Avenue B","2013-06-05 12:27:01 AM","0","33","28","40.72938685","-73.97772429"
"W 29 Street & 9 Avenue","2013-06-05 12:27:01 AM","22","27","5","40.7500727","-73.99839279"
"W 59 Street and 10 Avenue","2013-06-05 12:27:01 AM","4","27","20","40.77044059","-73.98780222"
"12 Avenue and W 40 Street","2013-06-05 12:27:01 AM","25","53","25","40.76087502","-74.00277668"
"W 43 Street & 10 Avenue","2013-06-05 12:27:01 AM","23","35","9","40.76009437","-73.99461843"
"Pershing Square S","2013-06-05 12:27:01 AM","56","59","1","40.75149263","-73.97798848"
"E 39 Street and 2 Avenue","2013-06-05 12:27:01 AM","29","39","6","40.74780373","-73.9734419"
"Pershing Square N","2013-06-05 12:27:01 AM","56","61","1","40.75188406","-73.97770164"
"W 52 Street & 5 Avenue","2013-06-05 12:27:01 AM","39","39","0","40.75992262","-73.97648516"
"8 Avenue and W 31 Street","2013-06-05 12:27:01 AM","33","67","29","40.75044999","-73.99481051"
"E 51 St & Lexington Av","2013-06-05 12:27:01 AM","46","51","3","40.75714758","-73.97207836"
"W 38 St & 8 Av","2013-06-05 12:27:01 AM","48","51","2","40.75466591","-73.99138152"
"W 43 Street & 6 Avenue","2013-06-05 12:27:01 AM","57","57","0","40.75527307","-73.98316936"
"W 34 Street & 11 Avenue","2013-06-05 12:27:01 AM","24","39","12","40.75594159","-74.0021163"
"E 33 St & 5 Av","2013-06-05 12:27:01 AM","41","43","2","40.74765947","-73.98490707"
"E 33 St & 1 Av","2013-06-05 12:27:01 AM","40","59","11","40.74315566","-73.97434726"
"2 Av & E 30 St","2013-06-05 12:27:01 AM","18","39","18","40.74290902","-73.97706058"
"W 42 Street and 8 Avenue","2013-06-05 12:27:01 AM","21","39","15","40.7575699","-73.99098507"
"DeKalb Av & S Portland Av","2013-06-05 12:27:01 AM","3","36","27","40.68981035","-73.97493121"
"Forsyth St and Broome St","2013-06-05 12:27:01 AM","3","39","29","40.71893904","-73.99266288"
"South 5 Pl and South 4 St","2013-06-05 12:27:01 AM","13","43","26","40.710451","-73.960876"
"Broadway & W 39 St","2013-06-05 12:27:01 AM","42","50","6","40.75299641","-73.98721619"
"Water Whitehall Plaza","2013-06-05 12:27:01 AM","26","31","4","40.70255065","-74.0127234"
"1 Avenue and E 30 Street","2013-06-05 12:27:01 AM","17","29","11","40.74144387","-73.97536082"
"Lexington Av and E 24 St","2013-06-05 12:27:01 AM","31","39","4","40.74025878","-73.98409214"
"W 49 Street & 5 Avenue","2013-06-05 12:27:01 AM","37","39","0","40.75795248","-73.97787642"
"Metropolitan and Bedford","2013-06-05 12:27:01 AM","8","31","20","40.71534825","-73.96024116"
"Lexington Av and E 26 St","2013-06-05 12:27:01 AM","25","39","13","40.74147286","-73.98320928"
"E 23 St & 1 Av","2013-06-05 12:27:01 AM","12","27","10","40.736502","-73.97809472"
"E 30 St and Park Av South","2013-06-05 12:27:01 AM","31","38","4","40.74444921","-73.98303529"
"Front St & Washington St","2013-06-05 12:27:01 AM","18","30","12","40.70255088","-73.98940236"
"7th Av & Farragut St","2013-06-05 12:27:01 AM","7","15","8","40.69892054","-73.97332996"
"1 Av & 18 St","2013-06-05 12:27:01 AM","3","30","21","40.73416059","-73.98024289"
"Spring St & 6 Av","2013-06-05 12:27:01 AM","25","36","9","40.7255002","-74.00445139"
"Railroad Av & Kay Av","2013-06-05 12:27:01 AM","1","12","10","40.70531194","-73.97100056"
"Central Park South & 6 Av","2013-06-05 12:27:01 AM","2","49","46","40.76590936","-73.97634151"
"W 52 St & 11 Av","2013-06-05 12:42:01 AM","5","39","25","40.76727216","-73.99392888"
"Franklin & West Broadway","2013-06-05 12:42:01 AM","25","33","7","40.71911552","-74.00666661"
"St. James Pl & Pearl St","2013-06-05 12:42:01 AM","8","26","18","40.71117416","-74.00016545"
"Atlantic Av & Ft. Greene Pl","2013-06-05 12:42:01 AM","0","62","7","40.68382604","-73.97632328"
"W 17 Street & 8 Avenue","2013-06-05 12:42:01 AM","18","39","16","40.74177603","-74.00149746"
"Park Av & St. Edward's St","2013-06-05 12:42:01 AM","9","19","9","40.69608941","-73.97803415"
"Lexington Av & Classon Av","2013-06-05 12:42:01 AM","2","19","16","40.68676793","-73.95928168"
"Barrow St & Hudson St","2013-06-05 12:42:01 AM","5","31","25","40.73172428","-74.00674436"
"MacDougal St & Prince St","2013-06-05 12:42:01 AM","7","30","20","40.72710258","-74.00297088"
"Henry St & Grand St","2013-06-05 12:42:01 AM","13","30","15","40.71425541","-73.98130841"
"Clinton St & Joralemon St","2013-06-05 12:42:01 AM","1","25","21","40.69239502","-73.99337909"
"Nassau St & Navy St","2013-06-05 12:42:01 AM","8","19","9","40.69839895","-73.98068914"
"Hudson St and Reade St","2013-06-05 12:42:01 AM","23","39","11","40.71625008","-74.0091059"
"Greenwich St & Warren St","2013-06-05 12:42:01 AM","25","33","6","40.71542197","-74.01121978"
"E 2 Street & Avenue C","2013-06-05 12:42:01 AM","4","31","26","40.7208736","-73.98085795"
"Cleveland Pl & Spring St","2013-06-05 12:42:01 AM","26","33","4","40.7218158","-73.99720307"
"Warren St & Church St","2013-06-05 12:42:01 AM","8","29","19","40.71473993","-74.00910627"
"Henry St & Atlantic Av","2013-06-05 12:42:01 AM","0","23","19","40.69089272","-73.99612349"
"LaGuardia Pl & W 3 St","2013-06-05 12:42:01 AM","17","35","15","40.72917025","-73.99810231"
"E 47 Street and 2 Avenue","2013-06-05 12:42:01 AM","44","47","3","40.75323098","-73.97032517"
"E 39 St & 3 Av","2013-06-05 12:42:01 AM","41","45","3","40.7489006","-73.97604882"
"W 18 St & 6 Av","2013-06-05 12:42:01 AM","46","47","0","40.73971301","-73.99456405"
"E 25 Street and 1 Avenue","2013-06-05 12:42:01 AM","18","30","8","40.7381765","-73.97738662"
"Liberty St & Broadway","2013-06-05 12:42:01 AM","25","45","18","40.70905623","-74.01043382"
"W 16 St and the High Line","2013-06-05 12:42:01 AM","15","28","12","40.74334935","-74.00681753"
"Columbia Hts & Cranberry","2013-06-05 12:42:01 AM","7","23","14","40.70037867","-73.99548059"
"Old Fulton Street","2013-06-05 12:42:01 AM","25","39","11","40.70277159","-73.99383605"
"Gallatin Pl & Livingston St","2013-06-05 12:42:01 AM","8","39","29","40.69028437","-73.98707105"
"W 13 Street and 7 Avenue","2013-06-05 12:42:01 AM","11","33","18","40.73781509","-73.99994661"
"Spruce St & Nassau St","2013-06-05 12:42:01 AM","19","31","9","40.71146364","-74.00552427"
"W 14 St & the High Line","2013-06-05 12:42:01 AM","34","37","2","40.74195138","-74.00803013"
"Great Jones Street","2013-06-05 12:42:01 AM","23","27","3","40.72743423","-73.99379025"
"Cadman Plz E & Tillary","2013-06-05 12:42:01 AM","2","23","20","40.69597683","-73.99014892"
"Joralemon St & Adams St","2013-06-05 12:42:01 AM","28","39","11","40.69246277","-73.98963911"
"St. Mark's Pl & 2 Av","2013-06-05 12:42:01 AM","0","39","36","40.7284186","-73.98713956"
"E 11 Street & 2 Avenue","2013-06-05 12:42:01 AM","7","39","28","40.73047309","-73.98672378"
"Bank St & Washington St","2013-06-05 12:42:01 AM","4","31","23","40.7361967","-74.00859207"
"Wiloughby St & Fleet St","2013-06-05 12:42:01 AM","14","31","12","40.69196566","-73.9813018"
"Flushing Av & Carlton Av","2013-06-05 12:42:01 AM","7","23","11","40.69788349","-73.97350332"
"Flatbush Av & Fulton St","2013-06-05 12:42:01 AM","11","19","8","40.68866384","-73.98051836"
"Willoughby Av & Hall St","2013-06-05 12:42:01 AM","12","31","19","40.69196035","-73.96536851"
"Myrtle Av & St. Edward's St","2013-06-05 12:42:01 AM","5","23","15","40.69327018","-73.97703874"
"Perry St and Bleecker St","2013-06-05 12:42:01 AM","2","20","14","40.73535398","-74.00483091"
"Laight St & Hudson St","2013-06-05 12:42:01 AM","6","23","17","40.72185379","-74.00771779"
"Harrison St and Hudson St","2013-06-05 12:42:01 AM","25","27","2","40.71870987","-74.0090009"
"Lafayette St & Jersey St","2013-06-05 12:42:01 AM","38","40","1","40.72456089","-73.99565293"
"Mott St & Prince St","2013-06-05 12:42:01 AM","7","27","17","40.72317958","-73.99480012"
"MacDougal St & Washington Sq","2013-06-05 12:42:01 AM","24","33","8","40.73226398","-73.99852205"
"W 13 Street & 5 Avenue","2013-06-05 12:42:01 AM","45","47","1","40.73543934","-73.99453948"
"W 11 Street & 6 Avenue","2013-06-05 12:42:01 AM","26","31","3","40.73532427","-73.99800419"
"Clinton St & Tillary St","2013-06-05 12:42:01 AM","1","31","22","40.6963992845","-73.9914025057"
"Lispenard St & Broadway","2013-06-05 12:42:01 AM","12","39","24","40.71939226","-74.00247214"
"DeKalb Av & Vanderbilt Av","2013-06-05 12:42:01 AM","4","23","18","40.68940747","-73.96885458"
"South St and Whitehall St","2013-06-05 12:42:01 AM","22","39","13","40.70122128","-74.01234218"
"Broad St and Bridge St","2013-06-05 12:42:01 AM","34","35","1","40.70365182","-74.01167797"
"Johnson St & Gold St","2013-06-05 12:42:01 AM","0","27","24","40.69474881","-73.98362464"
"Washington Park","2013-06-05 12:42:01 AM","10","24","10","40.69178232","-73.97372989"
"Maiden Lane & Pearl St","2013-06-05 12:42:01 AM","8","27","19","40.70706456","-74.00731853"
"Stanton St & Chrystie St","2013-06-05 12:42:01 AM","11","35","19","40.72229346","-73.99147535"
"Avenue D & E 8 Street","2013-06-05 12:42:01 AM","5","24","14","40.72368361","-73.97574813"
"Broadway & W 36 St","2013-06-05 12:42:01 AM","56","57","0","40.75097711","-73.98765428"
"Howard St & Centre St","2013-06-05 12:42:01 AM","2","27","19","40.71910537","-73.99973337"
"Adelphi St & Myrtle Av","2013-06-05 12:42:01 AM","2","23","17","40.69308257","-73.97178913"
"Ashland Pl & Hanson Pl","2013-06-05 12:42:01 AM","3","37","31","40.68528172","-73.97805813"
"Lafayette Av & Ft. Greene Pl","2013-06-05 12:42:01 AM","8","31","20","40.68691865","-73.976682"
"Washington Av & Greene Av","2013-06-05 12:42:01 AM","6","19","13","40.68650065","-73.96563307"
"Duane St & Greenwich St","2013-06-05 12:42:01 AM","19","25","4","40.71748752","-74.0104554"
"Concord St & Bridge St","2013-06-05 12:42:01 AM","2","19","16","40.69766564","-73.98476437"
"Sands St & Gold St","2013-06-05 12:42:01 AM","11","19","8","40.69986937","-73.98271933"
"E 10 Street & 5 Avenue","2013-06-05 12:42:01 AM","26","31","4","40.73331967","-73.99510132"
"Kent & S 11","2013-06-05 12:42:01 AM","11","27","16","40.70827295","-73.96834101"
"Broadway and E 14 Street","2013-06-05 12:42:01 AM","39","47","7","40.73454567","-73.99074142"
"Monroe St & Classon Av","2013-06-05 12:42:01 AM","1","18","14","40.6845683","-73.95881081"
"2 Avenue & E 58 Street","2013-06-05 12:42:01 AM","3","28","20","40.76020258","-73.96478473"
"Gouverneur St & Madison St","2013-06-05 12:42:01 AM","14","23","9","40.71345221","-73.98398567"
"Lafayette St & E 8 St","2013-06-05 12:42:01 AM","51","54","2","40.73028666","-73.9907647"
"Washington Square East","2013-06-05 12:42:01 AM","1","31","27","40.73049393","-73.9957214"
"Pike St & East Broadway","2013-06-05 12:42:01 AM","7","24","15","40.71406667","-73.99293911"
"Division Street & Bowery","2013-06-05 12:42:01 AM","14","35","16","40.71413089","-73.9970468"
"3rd Avenue & Flatbush Avenue","2013-06-05 12:42:01 AM","13","35","17","40.68683208","-73.9796772"
"Cooper Sq & E 7 St","2013-06-05 12:42:01 AM","21","42","19","40.7289841","-73.99051868"
"E 2 Street & Avenue B","2013-06-05 12:42:01 AM","4","37","31","40.72217444","-73.98368779"
"Avenue D & E 3 Street","2013-06-05 12:42:01 AM","1","23","20","40.72082834","-73.97793172"
"Mercer St & Spring St","2013-06-05 12:42:01 AM","30","31","0","40.72362738","-73.99949601"
"Broadway & Battery Pl","2013-06-05 12:42:01 AM","10","36","19","40.70463334","-74.01361706"
"E 58 Street and 3 Avenue","2013-06-05 12:42:01 AM","9","33","22","40.76095756","-73.96724467"
"Cliff St & Fulton St","2013-06-05 12:42:01 AM","7","37","24","40.70823502","-74.00530063"
"Canal St & Rutgers St","2013-06-05 12:42:01 AM","15","31","15","40.71427487","-73.98990025"
"St. James Pl & Oliver St","2013-06-05 12:42:01 AM","18","27","7","40.71307916","-73.99851193"
"Murray St & West St","2013-06-05 12:42:01 AM","36","41","1","40.7149787","-74.013012"
"State St & Smith St","2013-06-05 12:42:01 AM","12","36","21","40.68926942","-73.98912867"
"Norfolk St & Broome St","2013-06-05 12:42:01 AM","29","31","2","40.7172274","-73.98802084"
"Allen St & E Houston St","2013-06-05 12:42:01 AM","3","39","32","40.72263214","-73.98887365"
"Washington Av & Park Av","2013-06-05 12:42:01 AM","1","23","19","40.69610226","-73.96751037"
"Montague St & Clinton St","2013-06-05 12:42:01 AM","1","39","34","40.69424674","-73.99215922"
"South St & Gouverneur La","2013-06-05 12:42:01 AM","19","29","9","40.70355377","-74.00670227"
"Fulton St and William St","2013-06-05 12:42:01 AM","17","42","24","40.70955958","-74.00653609"
"E 6 Street & Avenue B","2013-06-05 12:42:01 AM","4","27","21","40.72453734","-73.98185424"
"E 43 St & Vanderbilt Av","2013-06-05 12:42:01 AM","30","31","1","40.75320159","-73.9779874"
"Park Pl & Church S","2013-06-05 12:42:01 AM","29","35","4","40.71336124","-74.00937622"
"Church St & Leonard St","2013-06-05 12:42:01 AM","17","39","19","40.71743998","-74.00583475"
"Cadman Plz E & Red Cross","2013-06-05 12:42:01 AM","19","27","6","40.69991755","-73.98971773"
"Lawrence Street & Willoughby Street","2013-06-05 12:42:01 AM","20","39","17","40.69236178","-73.98631746"
"DeKalb Av & Hudson Av","2013-06-05 12:42:01 AM","26","51","23","40.689888","-73.981013"
"E 19 Street and 3 Avenue","2013-06-05 12:42:01 AM","12","35","21","40.73624527","-73.98473765"
"E 11 Street & 1 Avenue","2013-06-05 12:42:01 AM","15","27","11","40.72953837","-73.98426726"
"Watts St & Greenwich St","2013-06-05 12:42:01 AM","16","23","7","40.72405549","-74.00965965"
"Greenwich St & N Moore St","2013-06-05 12:42:01 AM","26","31","3","40.72043411","-74.01020609"
"Reade Street & Broadway","2013-06-05 12:42:01 AM","37","39","1","40.71450451","-74.00562789"
"Pike St & Monroe St","2013-06-05 12:42:01 AM","0","27","25","40.71173107","-73.99193043"
"Cherry Street","2013-06-05 12:42:01 AM","4","24","17","40.71219906","-73.97948148"
"W 20 Street & 7 Avenue","2013-06-05 12:42:01 AM","27","31","3","40.74238787","-73.99726235"
"Washington Pl & Broadway","2013-06-05 12:42:01 AM","24","27","3","40.72903917","-73.99404649"
"Sullivan St & Washington Sq","2013-06-05 12:42:01 AM","20","36","12","40.73047747","-73.99906065"
"Old Slip and Front Street","2013-06-05 12:42:01 AM","21","37","12","40.7037992","-74.00838676"
"Avenue D & E 12 Street","2013-06-05 12:42:01 AM","7","24","12","40.72580614","-73.97422494"
"Madison & Clinton","2013-06-05 12:42:01 AM","18","27","9","40.71269042","-73.98776323"
"Stanton St & Mangin St","2013-06-05 12:42:01 AM","5","19","14","40.71782143","-73.97628939"
"Columbia St & Rivington St","2013-06-05 12:42:01 AM","11","29","15","40.71739973","-73.98016555"
"Clinton Av & Flushing Av","2013-06-05 12:42:01 AM","7","23","16","40.69794","-73.96986848"
"Monroe St & Bedford Av","2013-06-05 12:42:01 AM","3","23","17","40.6851443","-73.95380904"
"W 13 Street & 6 Avenue","2013-06-05 12:42:01 AM","26","35","8","40.73649403","-73.99704374"
"Bank St & Hudson St","2013-06-05 12:42:01 AM","1","27","22","40.73652889","-74.00618026"
"W Houston St & Hudson St","2013-06-05 12:42:01 AM","30","35","3","40.72873888","-74.00748842"
"West Broadway & Spring St","2013-06-05 12:42:01 AM","14","42","21","40.72490985","-74.00154702"
"Rivington St and Ridge St","2013-06-05 12:42:01 AM","6","23","11","40.71850211","-73.98329859"
"Clinton St & Grand St","2013-06-05 12:42:01 AM","9","28","18","40.71559509","-73.9870295"
"Front St & Maiden Ln","2013-06-05 12:42:01 AM","9","39","26","40.70530954","-74.00612572"
"W 56 Street and 6 Avenue","2013-06-05 12:42:01 AM","29","36","7","40.76340613","-73.97722479"
"S Portland Av & Hanson Pl","2013-06-05 12:42:01 AM","4","27","16","40.68539567","-73.97431458"
"Myrtle Av & Emerson Pl","2013-06-05 12:42:01 AM","5","31","22","40.69363137","-73.96223558"
"Bayard St & Baxter St","2013-06-05 12:42:01 AM","25","43","14","40.71602118","-73.99974372"
"Bialystoker Pl & Delancey St","2013-06-05 12:42:01 AM","6","23","15","40.71622644","-73.98261206"
"E 11 Street & Broadway","2013-06-05 12:42:01 AM","23","26","2","40.73261787","-73.99158043"
"Christopher & Greenwich St","2013-06-05 12:42:01 AM","2","36","32","40.73291553","-74.00711384"
"E 47 St and Park Av","2013-06-05 12:42:01 AM","51","55","1","40.75510267","-73.97498696"
"William St & Pine St","2013-06-05 12:42:01 AM","37","39","1","40.70717936","-74.00887308"
"Allen St & Hester St","2013-06-05 12:42:01 AM","22","43","18","40.71605866","-73.99190759"
"Broadway and W 37 Street","2013-06-05 12:42:01 AM","48","57","5","40.75172632","-73.98753523"
"West Thames Street","2013-06-05 12:42:01 AM","3","48","42","40.70834698","-74.01713445"
"Lafayette Av & Classon Av","2013-06-05 12:42:01 AM","11","27","13","40.68900443","-73.96023854"
"Fulton St & Grand Av","2013-06-05 12:42:01 AM","7","31","22","40.68223166","-73.9614583"
"Clinton Av & Myrtle Av","2013-06-05 12:42:01 AM","4","33","25","40.693261","-73.968896"
"E 53 St and Lexington Av","2013-06-05 12:42:01 AM","31","34","0","40.75828065","-73.97069431"
"Carmine St & 6 Av","2013-06-05 12:42:01 AM","9","39","28","40.73038599","-74.00214988"
"Washington Pl & 6 Av","2013-06-05 12:42:01 AM","18","35","16","40.73224119","-74.00026394"
"Franklin & Myrtle Ave","2013-06-05 12:42:01 AM","0","27","23","40.694528","-73.958089"
"Willoughby Av & Walworth","2013-06-05 12:42:01 AM","1","19","17","40.69331716","-73.95381995"
"Mercer St & Bleecker St","2013-06-05 12:42:01 AM","17","30","12","40.72679454","-73.99695094"
"John St & William St","2013-06-05 12:42:01 AM","36","43","6","40.70862144","-74.00722156"
"6 Avenue & Canal Street","2013-06-05 12:42:01 AM","43","47","2","40.72243797","-74.00566443"
"W 4 St & 7 Av South","2013-06-05 12:42:01 AM","33","39","4","40.73401143","-74.00293877"
"University Pl & E 14 St","2013-06-05 12:42:01 AM","11","36","20","40.73492695","-73.99200509"
"Greenwich Av & 7 Av","2013-06-05 12:42:01 AM","20","41","19","40.73625106","-74.00083692"
"Fulton St & Waverly Av","2013-06-05 12:42:01 AM","5","31","22","40.68317813","-73.9659641"
"Centre St & Worth St","2013-06-05 12:42:01 AM","36","43","4","40.71494807","-74.00234482"
"Centre St & Chambers St","2013-06-05 12:42:01 AM","14","39","24","40.71273266","-74.0046073"
"Broadway and Berry","2013-06-05 12:42:01 AM","2","27","24","40.71044554","-73.96525063"
"Duffield St & Willoughby St","2013-06-05 12:42:01 AM","14","31","17","40.69221589","-73.9842844"
"Clark St & Henry St","2013-06-05 12:42:01 AM","6","31","24","40.69760127","-73.99344559"
"Jay St and Tech Pl","2013-06-05 12:42:01 AM","16","35","19","40.69507866","-73.9872478"
"E 5 Street & Avenue C","2013-06-05 12:42:01 AM","11","31","19","40.72299208","-73.97995466"
"E 9 Street & Avenue C","2013-06-05 12:42:01 AM","2","36","30","40.72521311","-73.97768752"
"Bond St & Schermerhorn St","2013-06-05 12:42:01 AM","6","30","17","40.68807003","-73.98410637"
"Lefferts Pl & Franklin Av","2013-06-05 12:42:01 AM","8","25","14","40.680342423","-73.9557689392"
"Fulton St & Clermont Av","2013-06-05 12:42:01 AM","8","27","18","40.68415748","-73.96922273"
"Atlantic Av & Furman St","2013-06-05 12:42:01 AM","5","31","24","40.69165183","-73.9999786"
"St. James Pl & Lafayette Av","2013-06-05 12:42:01 AM","8","26","18","40.68851534","-73.9647628"
"Pitt St & Stanton St","2013-06-05 12:42:01 AM","9","15","4","40.71926081","-73.98178024"
"Allen St & Rivington St","2013-06-05 12:42:01 AM","5","42","33","40.72019576","-73.98997825"
"Broadway & E 22 St","2013-06-05 12:42:01 AM","37","42","4","40.7403432","-73.98955109"
"E 2 Street and 2 Avenue","2013-06-05 12:42:01 AM","0","31","29","40.72502876","-73.99069656"
"9 Avenue & W 14 Street","2013-06-05 12:42:01 AM","17","39","21","40.7405826","-74.00550867"
"Hicks St & Montague St","2013-06-05 12:42:01 AM","2","34","26","40.69512845","-73.99595065"
"Cadman Plz W & Middagh","2013-06-05 12:42:01 AM","19","23","2","40.70010145","-73.99104388"
"Market St & Cherry St","2013-06-05 12:42:01 AM","1","23","18","40.71076228","-73.99400398"
"Suffolk St & Stanton St","2013-06-05 12:42:01 AM","10","35","20","40.72066442","-73.98517977"
"E 6 Street & Avenue D","2013-06-05 12:42:01 AM","1","23","22","40.72228087","-73.97668709"
"Forsyth St & Canal St","2013-06-05 12:42:01 AM","20","29","9","40.7158155","-73.99422366"
"Pearl St & Anchorage Pl","2013-06-05 12:42:01 AM","11","24","12","40.70281858","-73.98765762"
"Pearl St & Hanover Sq","2013-06-05 12:42:01 AM","27","42","12","40.7047177","-74.00926027"
"Cumberland St & Lafayette","2013-06-05 12:42:01 AM","17","31","13","40.68753406","-73.97265183"
"Barclay St & Church St","2013-06-05 12:42:01 AM","5","47","34","40.71291224","-74.01020234"
"Front St & Gold St","2013-06-05 12:42:01 AM","3","23","17","40.70224","-73.982578"
"Carlton Av & Park Av","2013-06-05 12:42:01 AM","4","23","15","40.69580705","-73.97355569"
"Clermont Av & Lafayette Av","2013-06-05 12:42:01 AM","7","23","14","40.68764484","-73.96968902"
"Clermont Av & Park Av","2013-06-05 12:42:01 AM","7","19","11","40.69573398","-73.97129668"
"11 Avenue and W 59 Street","2013-06-05 12:42:01 AM","14","55","33","40.7714846","-73.99040196"
"W 54 St & 9 Av","2013-06-05 12:42:01 AM","30","39","8","40.76584941","-73.98690506"
"West St & Chambers St","2013-06-05 12:42:01 AM","4","31","24","40.71754834","-74.01322069"
"State Street","2013-06-05 12:42:01 AM","36","49","12","40.70251526","-74.01427023"
"E 3 Street & 1 Avenue","2013-06-05 12:42:01 AM","4","31","24","40.72467721","-73.98783413"
"York Street & Jay Street","2013-06-05 12:42:01 AM","6","27","18","40.7014851","-73.98656928"
"Hanover Pl & Livingston St","2013-06-05 12:42:01 AM","5","30","23","40.68864636","-73.98263429"
"E 7 Street & Avenue A","2013-06-05 12:42:01 AM","3","31","27","40.72621788","-73.98379855"
"E 13 Street & Avenue A","2013-06-05 12:42:01 AM","8","39","29","40.72955361","-73.98057249"
"9 Avenue & W 18 Street","2013-06-05 12:42:01 AM","6","27","20","40.74317449","-74.00366443"
"W 21 Street & 6 Avenue","2013-06-05 12:42:01 AM","44","47","1","40.74173969","-73.99415556"
"Hancock St & Bedford Av","2013-06-05 12:42:01 AM","2","27","23","40.68216564","-73.95399026"
"Macon St & Nostrand Av","2013-06-05 12:42:01 AM","12","27","12","40.6809833854","-73.9500479759"
"St Marks & 1 Av","2013-06-05 12:42:01 AM","6","27","17","40.72779126","-73.98564945"
"E 4 Street & 2 Avenue","2013-06-05 12:42:01 AM","5","39","26","40.7262807","-73.98978041"
"E 45 St & 3 Av","2013-06-05 12:42:01 AM","32","32","0","40.75255434","-73.97282625"
"E 52 Street & 2 Avenue","2013-06-05 12:42:01 AM","16","34","15","40.7560191","-73.96744628"
"W 27 St & 7 Av","2013-06-05 12:42:01 AM","50","51","0","40.7468416","-73.99445897"
"Bedford and South 9th","2013-06-05 12:42:01 AM","7","23","13","40.70853074","-73.96408963"
"Broadway & W 24 Street","2013-06-05 12:42:01 AM","25","48","22","40.7423543","-73.98915076"
"E 10 Street & Avenue A","2013-06-05 12:42:01 AM","34","36","1","40.72740794","-73.98142006"
"W 24 Street & 7 Avenue","2013-06-05 12:42:01 AM","35","39","2","40.74487634","-73.99529885"
"8  Av & W 57 St","2013-06-05 12:42:01 AM","29","31","0","40.76370739","-73.9851615"
"W 37 St & 10 Av","2013-06-05 12:42:01 AM","15","31","12","40.75660359","-73.9979009"
"52 St & 9 Av","2013-06-05 12:42:01 AM","21","31","10","40.76461837","-73.98789473"
"W 49 Street & 8 Avenue","2013-06-05 12:42:01 AM","52","59","5","40.76227205","-73.98788205"
"W 22 St & 8 Av","2013-06-05 12:42:01 AM","22","39","15","40.74475148","-73.99915362"
"E 51 Street and 1 Avenue","2013-06-05 12:42:01 AM","17","35","17","40.75455731","-73.96592976"
"1 Avenue & E 44 Street","2013-06-05 12:42:01 AM","34","39","4","40.75001986","-73.96905301"
"E 53 St and Madison Av","2013-06-05 12:42:01 AM","31","35","1","40.7597108","-73.97402311"
"Broadway & W 57 st","2013-06-05 12:42:01 AM","13","59","42","40.76695317","-73.98169333"
"W 22 Street & 11 Avenue","2013-06-05 12:42:01 AM","11","27","13","40.74806176","-74.00723188"
"W 18 Street & 11 Avenue","2013-06-05 12:42:01 AM","20","21","1","40.74522724","-74.00797904"
"S 4 St & Wythe Av","2013-06-05 12:42:01 AM","6","23","16","40.71285887","-73.96590294"
"E 20 Street & 2 Avenue","2013-06-05 12:42:01 AM","35","39","1","40.73587678","-73.98205027"
"W 22 Street & 10 Avenue","2013-06-05 12:42:01 AM","34","47","10","40.74691959","-74.00451887"
"9 Avenue & W 16 Street","2013-06-05 12:42:01 AM","24","25","1","40.74206539","-74.00443172"
"E 56 Street & 3 Avenue","2013-06-05 12:42:01 AM","12","50","32","40.75934501","-73.96759673"
"Broadway & W 41 Street","2013-06-05 12:42:01 AM","29","39","10","40.75513557","-73.98658032"
"W 25 St & 6 Av","2013-06-05 12:42:01 AM","20","35","13","40.74395411","-73.99144871"
"Dean Street and 4 Avenue","2013-06-05 12:42:01 AM","1","34","31","40.68312489","-73.97895137"
"Broadway & W 55 Street","2013-06-05 12:42:01 AM","46","59","6","40.7652654","-73.98192338"
"Broadway & W 53 Street","2013-06-05 12:42:01 AM","55","57","2","40.76344058","-73.98268129"
"W 20 Street and 8 Avenue","2013-06-05 12:42:01 AM","32","37","4","40.74345335","-74.00004031"
"Grand St & Havemeyer St","2013-06-05 12:42:01 AM","9","27","15","40.71286844","-73.95698119"
"E 32 St & Park Av","2013-06-05 12:42:01 AM","38","41","2","40.7457121","-73.98194829"
"Rivington St & Chrystie St","2013-06-05 12:42:01 AM","2","42","34","40.72110063","-73.9919254"
"5 Avenue and E 29 Street","2013-06-05 12:42:01 AM","45","47","2","40.7451677","-73.98683077"
"E 16 Street & Irving Place","2013-06-05 12:42:01 AM","18","36","15","40.73524276","-73.98758561"
"E 31 Street and 3 Avenue","2013-06-05 12:42:01 AM","24","47","21","40.74394314","-73.97966069"
"W 41 Street and 8 Avenue","2013-06-05 12:42:01 AM","27","59","27","40.75640548","-73.9900262"
"11 Avenue and W 41 Street","2013-06-05 12:42:01 AM","18","31","11","40.76030096","-73.99884222"
"9 Av & W 45 St","2013-06-05 12:42:01 AM","21","31","8","40.76019252","-73.9912551"
"W 53 Street & 10 Avenue","2013-06-05 12:42:01 AM","13","27","12","40.76669671","-73.99061728"
"S 3 St & Bedford","2013-06-05 12:42:01 AM","4","25","18","40.71260486","-73.96264403"
"W 15 Street and 7 Avenue","2013-06-05 12:42:01 AM","2","39","34","40.73935542","-73.99931783"
"E 12 Street & 3 Avenue","2013-06-05 12:42:01 AM","12","35","20","40.73223272","-73.98889957"
"W 44 Street & 5 Avenue","2013-06-05 12:42:01 AM","42","44","1","40.75500254","-73.98014437"
"W 37 St & 5 Av","2013-06-05 12:42:01 AM","37","39","1","40.75038009","-73.98338988"
"Broadway & W 29 Street","2013-06-05 12:42:01 AM","25","39","12","40.7462009","-73.98855723"
"E 20 Street & FDR Drive","2013-06-05 12:42:01 AM","3","36","25","40.73314259","-73.97573881"
"W 39 Street & 9 Avenue","2013-06-05 12:42:01 AM","38","41","3","40.75645824","-73.99372222"
"10 Av & W 28 St","2013-06-05 12:42:01 AM","20","37","14","40.75066386","-74.00176802"
"W 35 Street and 8 Avenue","2013-06-05 12:42:01 AM","55","59","0","40.75275056","-73.99282379"
"E 24 St & Park Av South","2013-06-05 12:42:01 AM","50","53","3","40.74096374","-73.98602213"
"W 33 Street & 7 Avenue","2013-06-05 12:42:01 AM","14","49","35","40.75019995","-73.99093085"
"W 45 Street and 6 Avenue","2013-06-05 12:42:01 AM","34","34","0","40.7568001","-73.98291153"
"W 26 Street and 8 Avenue","2013-06-05 12:42:01 AM","33","35","0","40.74734825","-73.99723551"
"W 47 Street and 10 Avenue","2013-06-05 12:42:01 AM","13","25","11","40.76269882","-73.99301222"
"E 16 Street & 5 Avenue","2013-06-05 12:42:01 AM","43","46","2","40.73726186","-73.99238967"
"E 17 Street and Broadway","2013-06-05 12:42:01 AM","54","59","2","40.73704984","-73.99009296"
"Broadway & W 32 Street","2013-06-05 12:42:01 AM","30","30","0","40.74854862","-73.98808416"
"Broadway & W 51 Street","2013-06-05 12:42:01 AM","47","49","2","40.76228826","-73.98336183"
"FDR Drive and E 35 Street","2013-06-05 12:42:01 AM","16","43","24","40.744219","-73.97121214"
"E 20 St & Park Av","2013-06-05 12:42:01 AM","26","29","2","40.73827428","-73.98751968"
"1 Avenue & E 15 Street","2013-06-05 12:42:01 AM","6","45","32","40.73221853","-73.98165557"
"6 Avenue & W 33 Street","2013-06-05 12:42:01 AM","33","36","3","40.74901271","-73.98848395"
"E 25 St & 2 Av","2013-06-05 12:42:01 AM","24","47","20","40.73912601","-73.97973776"
"W 46 Street & 11 Avenue","2013-06-05 12:42:01 AM","17","24","6","40.76341379","-73.99667444"
"9 Avenue & W 22 Street","2013-06-05 12:42:01 AM","1","36","30","40.7454973","-74.00197139"
"W 51 Street and 6 Avenue","2013-06-05 12:42:01 AM","18","51","31","40.7606597","-73.98042047"
"E 14 Street & Avenue B","2013-06-05 12:42:01 AM","0","33","28","40.72938685","-73.97772429"
"W 29 Street & 9 Avenue","2013-06-05 12:42:01 AM","22","27","5","40.7500727","-73.99839279"
"W 59 Street and 10 Avenue","2013-06-05 12:42:01 AM","4","27","20","40.77044059","-73.98780222"
"12 Avenue and W 40 Street","2013-06-05 12:42:01 AM","25","53","25","40.76087502","-74.00277668"
"W 43 Street & 10 Avenue","2013-06-05 12:42:01 AM","23","35","9","40.76009437","-73.99461843"
"Pershing Square S","2013-06-05 12:42:01 AM","56","59","1","40.75149263","-73.97798848"
"E 39 Street and 2 Avenue","2013-06-05 12:42:01 AM","29","39","6","40.74780373","-73.9734419"
"Pershing Square N","2013-06-05 12:42:01 AM","56","61","1","40.75188406","-73.97770164"
"W 52 Street & 5 Avenue","2013-06-05 12:42:01 AM","39","39","0","40.75992262","-73.97648516"
"8 Avenue and W 31 Street","2013-06-05 12:42:01 AM","33","67","29","40.75044999","-73.99481051"
"E 51 St & Lexington Av","2013-06-05 12:42:01 AM","46","51","3","40.75714758","-73.97207836"
"W 38 St & 8 Av","2013-06-05 12:42:01 AM","48","51","2","40.75466591","-73.99138152"
"W 43 Street & 6 Avenue","2013-06-05 12:42:01 AM","57","57","0","40.75527307","-73.98316936"
"W 34 Street & 11 Avenue","2013-06-05 12:42:01 AM","24","39","12","40.75594159","-74.0021163"
"E 33 St & 5 Av","2013-06-05 12:42:01 AM","41","43","2","40.74765947","-73.98490707"
"E 33 St & 1 Av","2013-06-05 12:42:01 AM","40","59","11","40.74315566","-73.97434726"
"2 Av & E 30 St","2013-06-05 12:42:01 AM","17","39","19","40.74290902","-73.97706058"
"W 42 Street and 8 Avenue","2013-06-05 12:42:01 AM","21","39","15","40.7575699","-73.99098507"
"DeKalb Av & S Portland Av","2013-06-05 12:42:01 AM","3","36","27","40.68981035","-73.97493121"
"Forsyth St and Broome St","2013-06-05 12:42:01 AM","3","39","29","40.71893904","-73.99266288"
"South 5 Pl and South 4 St","2013-06-05 12:42:01 AM","13","43","26","40.710451","-73.960876"
"Broadway & W 39 St","2013-06-05 12:42:01 AM","42","50","6","40.75299641","-73.98721619"
"Water Whitehall Plaza","2013-06-05 12:42:01 AM","26","31","4","40.70255065","-74.0127234"
"1 Avenue and E 30 Street","2013-06-05 12:42:01 AM","17","29","11","40.74144387","-73.97536082"
"Lexington Av and E 24 St","2013-06-05 12:42:01 AM","31","39","4","40.74025878","-73.98409214"
"W 49 Street & 5 Avenue","2013-06-05 12:42:01 AM","37","39","0","40.75795248","-73.97787642"
"Metropolitan and Bedford","2013-06-05 12:42:01 AM","6","31","22","40.71534825","-73.96024116"
"Lexington Av and E 26 St","2013-06-05 12:42:01 AM","25","39","13","40.74147286","-73.98320928"
"E 23 St & 1 Av","2013-06-05 12:42:01 AM","12","27","10","40.736502","-73.97809472"
"E 30 St and Park Av South","2013-06-05 12:42:01 AM","31","38","4","40.74444921","-73.98303529"
"Front St & Washington St","2013-06-05 12:42:01 AM","18","30","12","40.70255088","-73.98940236"
"7th Av & Farragut St","2013-06-05 12:42:01 AM","7","15","8","40.69892054","-73.97332996"
"1 Av & 18 St","2013-06-05 12:42:01 AM","3","30","21","40.73416059","-73.98024289"
"Spring St & 6 Av","2013-06-05 12:42:01 AM","24","36","10","40.7255002","-74.00445139"
"Railroad Av & Kay Av","2013-06-05 12:42:01 AM","1","12","10","40.70531194","-73.97100056"
"Central Park South & 6 Av","2013-06-05 12:42:01 AM","1","49","47","40.76590936","-73.97634151"
"W 52 St & 11 Av","2013-06-05 12:57:01 AM","5","39","25","40.76727216","-73.99392888"
"Franklin & West Broadway","2013-06-05 12:57:01 AM","25","33","7","40.71911552","-74.00666661"
"St. James Pl & Pearl St","2013-06-05 12:57:01 AM","8","26","18","40.71117416","-74.00016545"
"Atlantic Av & Ft. Greene Pl","2013-06-05 12:57:01 AM","0","62","7","40.68382604","-73.97632328"
"W 17 Street & 8 Avenue","2013-06-05 12:57:01 AM","18","39","16","40.74177603","-74.00149746"
"Park Av & St. Edward's St","2013-06-05 12:57:01 AM","9","19","9","40.69608941","-73.97803415"
"Lexington Av & Classon Av","2013-06-05 12:57:01 AM","2","19","16","40.68676793","-73.95928168"
"Barrow St & Hudson St","2013-06-05 12:57:01 AM","4","31","25","40.73172428","-74.00674436"
"MacDougal St & Prince St","2013-06-05 12:57:01 AM","7","30","20","40.72710258","-74.00297088"
"Henry St & Grand St","2013-06-05 12:57:01 AM","13","30","15","40.71425541","-73.98130841"
"Clinton St & Joralemon St","2013-06-05 12:57:01 AM","1","25","21","40.69239502","-73.99337909"
"Nassau St & Navy St","2013-06-05 12:57:01 AM","8","19","9","40.69839895","-73.98068914"
"Hudson St and Reade St","2013-06-05 12:57:01 AM","23","39","11","40.71625008","-74.0091059"
"Greenwich St & Warren St","2013-06-05 12:57:01 AM","25","33","6","40.71542197","-74.01121978"
"E 2 Street & Avenue C","2013-06-05 12:57:01 AM","4","31","26","40.7208736","-73.98085795"
"Cleveland Pl & Spring St","2013-06-05 12:57:01 AM","26","33","4","40.7218158","-73.99720307"
"Warren St & Church St","2013-06-05 12:57:01 AM","8","29","19","40.71473993","-74.00910627"
"Henry St & Atlantic Av","2013-06-05 12:57:01 AM","0","23","19","40.69089272","-73.99612349"
"LaGuardia Pl & W 3 St","2013-06-05 12:57:01 AM","17","35","15","40.72917025","-73.99810231"
"E 47 Street and 2 Avenue","2013-06-05 12:57:01 AM","45","47","2","40.75323098","-73.97032517"
"E 39 St & 3 Av","2013-06-05 12:57:01 AM","41","45","3","40.7489006","-73.97604882"
"W 18 St & 6 Av","2013-06-05 12:57:01 AM","45","47","1","40.73971301","-73.99456405"
"E 25 Street and 1 Avenue","2013-06-05 12:57:01 AM","18","30","8","40.7381765","-73.97738662"
"Liberty St & Broadway","2013-06-05 12:57:01 AM","25","45","18","40.70905623","-74.01043382"
"W 16 St and the High Line","2013-06-05 12:57:01 AM","15","28","12","40.74334935","-74.00681753"
"Columbia Hts & Cranberry","2013-06-05 12:57:01 AM","7","23","14","40.70037867","-73.99548059"
"Old Fulton Street","2013-06-05 12:57:01 AM","25","39","11","40.70277159","-73.99383605"
"Gallatin Pl & Livingston St","2013-06-05 12:57:01 AM","8","39","29","40.69028437","-73.98707105"
"W 13 Street and 7 Avenue","2013-06-05 12:57:01 AM","11","33","18","40.73781509","-73.99994661"
"Spruce St & Nassau St","2013-06-05 12:57:01 AM","19","31","9","40.71146364","-74.00552427"
"W 14 St & the High Line","2013-06-05 12:57:01 AM","34","37","2","40.74195138","-74.00803013"
"Great Jones Street","2013-06-05 12:57:01 AM","23","27","3","40.72743423","-73.99379025"
"Cadman Plz E & Tillary","2013-06-05 12:57:01 AM","2","23","20","40.69597683","-73.99014892"
"Joralemon St & Adams St","2013-06-05 12:57:01 AM","28","39","11","40.69246277","-73.98963911"
"St. Mark's Pl & 2 Av","2013-06-05 12:57:01 AM","0","39","36","40.7284186","-73.98713956"
"E 11 Street & 2 Avenue","2013-06-05 12:57:01 AM","9","39","26","40.73047309","-73.98672378"
"Bank St & Washington St","2013-06-05 12:57:01 AM","4","31","23","40.7361967","-74.00859207"
"Wiloughby St & Fleet St","2013-06-05 12:57:01 AM","14","31","12","40.69196566","-73.9813018"
"Flushing Av & Carlton Av","2013-06-05 12:57:01 AM","7","23","11","40.69788349","-73.97350332"
"Flatbush Av & Fulton St","2013-06-05 12:57:01 AM","11","19","8","40.68866384","-73.98051836"
"Willoughby Av & Hall St","2013-06-05 12:57:01 AM","12","31","19","40.69196035","-73.96536851"
"Myrtle Av & St. Edward's St","2013-06-05 12:57:01 AM","5","23","15","40.69327018","-73.97703874"
"Perry St and Bleecker St","2013-06-05 12:57:01 AM","3","20","13","40.73535398","-74.00483091"
"Laight St & Hudson St","2013-06-05 12:57:01 AM","6","23","17","40.72185379","-74.00771779"
"Harrison St and Hudson St","2013-06-05 12:57:01 AM","25","27","2","40.71870987","-74.0090009"
"Lafayette St & Jersey St","2013-06-05 12:57:01 AM","38","40","1","40.72456089","-73.99565293"
"Mott St & Prince St","2013-06-05 12:57:01 AM","7","27","17","40.72317958","-73.99480012"
"MacDougal St & Washington Sq","2013-06-05 12:57:01 AM","24","33","8","40.73226398","-73.99852205"
"W 13 Street & 5 Avenue","2013-06-05 12:57:01 AM","45","47","1","40.73543934","-73.99453948"
"W 11 Street & 6 Avenue","2013-06-05 12:57:01 AM","26","31","3","40.73532427","-73.99800419"
"Clinton St & Tillary St","2013-06-05 12:57:01 AM","1","31","22","40.6963992845","-73.9914025057"
"Lispenard St & Broadway","2013-06-05 12:57:01 AM","12","39","24","40.71939226","-74.00247214"
"DeKalb Av & Vanderbilt Av","2013-06-05 12:57:01 AM","4","23","18","40.68940747","-73.96885458"
"South St and Whitehall St","2013-06-05 12:57:01 AM","22","39","13","40.70122128","-74.01234218"
"Broad St and Bridge St","2013-06-05 12:57:01 AM","34","35","1","40.70365182","-74.01167797"
"Johnson St & Gold St","2013-06-05 12:57:01 AM","0","27","24","40.69474881","-73.98362464"
"Washington Park","2013-06-05 12:57:01 AM","10","24","10","40.69178232","-73.97372989"
"Maiden Lane & Pearl St","2013-06-05 12:57:01 AM","8","27","19","40.70706456","-74.00731853"
"Stanton St & Chrystie St","2013-06-05 12:57:01 AM","1","35","30","40.72229346","-73.99147535"
"Avenue D & E 8 Street","2013-06-05 12:57:01 AM","5","24","14","40.72368361","-73.97574813"
"Broadway & W 36 St","2013-06-05 12:57:01 AM","56","57","0","40.75097711","-73.98765428"
"Howard St & Centre St","2013-06-05 12:57:01 AM","3","27","18","40.71910537","-73.99973337"
"Adelphi St & Myrtle Av","2013-06-05 12:57:01 AM","2","23","17","40.69308257","-73.97178913"
"Ashland Pl & Hanson Pl","2013-06-05 12:57:01 AM","4","37","30","40.68528172","-73.97805813"
"Lafayette Av & Ft. Greene Pl","2013-06-05 12:57:01 AM","7","31","21","40.68691865","-73.976682"
"Washington Av & Greene Av","2013-06-05 12:57:01 AM","6","19","13","40.68650065","-73.96563307"
"Duane St & Greenwich St","2013-06-05 12:57:01 AM","19","25","4","40.71748752","-74.0104554"
"Concord St & Bridge St","2013-06-05 12:57:01 AM","2","19","16","40.69766564","-73.98476437"
"Sands St & Gold St","2013-06-05 12:57:01 AM","11","19","8","40.69986937","-73.98271933"
"E 10 Street & 5 Avenue","2013-06-05 12:57:01 AM","24","31","6","40.73331967","-73.99510132"
"Kent & S 11","2013-06-05 12:57:01 AM","11","27","16","40.70827295","-73.96834101"
"Broadway and E 14 Street","2013-06-05 12:57:01 AM","39","47","7","40.73454567","-73.99074142"
"Monroe St & Classon Av","2013-06-05 12:57:01 AM","1","18","14","40.6845683","-73.95881081"
"2 Avenue & E 58 Street","2013-06-05 12:57:01 AM","3","28","20","40.76020258","-73.96478473"
"Gouverneur St & Madison St","2013-06-05 12:57:01 AM","13","23","10","40.71345221","-73.98398567"
"Lafayette St & E 8 St","2013-06-05 12:57:01 AM","51","54","2","40.73028666","-73.9907647"
"Washington Square East","2013-06-05 12:57:01 AM","1","31","27","40.73049393","-73.9957214"
"Pike St & East Broadway","2013-06-05 12:57:01 AM","6","24","16","40.71406667","-73.99293911"
"Division Street & Bowery","2013-06-05 12:57:01 AM","14","35","16","40.71413089","-73.9970468"
"3rd Avenue & Flatbush Avenue","2013-06-05 12:57:01 AM","13","35","17","40.68683208","-73.9796772"
"Cooper Sq & E 7 St","2013-06-05 12:57:01 AM","21","42","19","40.7289841","-73.99051868"
"E 2 Street & Avenue B","2013-06-05 12:57:01 AM","4","37","31","40.72217444","-73.98368779"
"Avenue D & E 3 Street","2013-06-05 12:57:01 AM","1","23","20","40.72082834","-73.97793172"
"Mercer St & Spring St","2013-06-05 12:57:01 AM","30","31","0","40.72362738","-73.99949601"
"Broadway & Battery Pl","2013-06-05 12:57:01 AM","10","36","19","40.70463334","-74.01361706"
"E 58 Street and 3 Avenue","2013-06-05 12:57:01 AM","9","33","22","40.76095756","-73.96724467"
"Cliff St & Fulton St","2013-06-05 12:57:01 AM","7","37","24","40.70823502","-74.00530063"
"Canal St & Rutgers St","2013-06-05 12:57:01 AM","14","31","16","40.71427487","-73.98990025"
"St. James Pl & Oliver St","2013-06-05 12:57:01 AM","18","27","7","40.71307916","-73.99851193"
"Murray St & West St","2013-06-05 12:57:01 AM","36","41","1","40.7149787","-74.013012"
"State St & Smith St","2013-06-05 12:57:01 AM","12","36","21","40.68926942","-73.98912867"
"Norfolk St & Broome St","2013-06-05 12:57:01 AM","29","31","2","40.7172274","-73.98802084"
"Allen St & E Houston St","2013-06-05 12:57:01 AM","3","39","32","40.72263214","-73.98887365"
"Washington Av & Park Av","2013-06-05 12:57:01 AM","1","23","19","40.69610226","-73.96751037"
"Montague St & Clinton St","2013-06-05 12:57:01 AM","1","39","34","40.69424674","-73.99215922"
"South St & Gouverneur La","2013-06-05 12:57:01 AM","17","29","11","40.70355377","-74.00670227"
"Fulton St and William St","2013-06-05 12:57:01 AM","17","42","24","40.70955958","-74.00653609"
"E 6 Street & Avenue B","2013-06-05 12:57:01 AM","4","27","21","40.72453734","-73.98185424"
"E 43 St & Vanderbilt Av","2013-06-05 12:57:01 AM","31","31","0","40.75320159","-73.9779874"
"Park Pl & Church S","2013-06-05 12:57:01 AM","29","35","4","40.71336124","-74.00937622"
"Church St & Leonard St","2013-06-05 12:57:01 AM","17","39","19","40.71743998","-74.00583475"
"Cadman Plz E & Red Cross","2013-06-05 12:57:01 AM","19","27","6","40.69991755","-73.98971773"
"Lawrence Street & Willoughby Street","2013-06-05 12:57:01 AM","19","39","18","40.69236178","-73.98631746"
"DeKalb Av & Hudson Av","2013-06-05 12:57:01 AM","27","51","22","40.689888","-73.981013"
"E 19 Street and 3 Avenue","2013-06-05 12:57:01 AM","13","35","20","40.73624527","-73.98473765"
"E 11 Street & 1 Avenue","2013-06-05 12:57:01 AM","15","27","11","40.72953837","-73.98426726"
"Watts St & Greenwich St","2013-06-05 12:57:01 AM","16","23","7","40.72405549","-74.00965965"
"Greenwich St & N Moore St","2013-06-05 12:57:01 AM","26","31","3","40.72043411","-74.01020609"
"Reade Street & Broadway","2013-06-05 12:57:01 AM","37","39","1","40.71450451","-74.00562789"
"Pike St & Monroe St","2013-06-05 12:57:01 AM","0","27","25","40.71173107","-73.99193043"
"Cherry Street","2013-06-05 12:57:01 AM","4","24","17","40.71219906","-73.97948148"
"W 20 Street & 7 Avenue","2013-06-05 12:57:01 AM","27","31","3","40.74238787","-73.99726235"
"Washington Pl & Broadway","2013-06-05 12:57:01 AM","25","27","2","40.72903917","-73.99404649"
"Sullivan St & Washington Sq","2013-06-05 12:57:01 AM","20","36","12","40.73047747","-73.99906065"
"Old Slip and Front Street","2013-06-05 12:57:01 AM","21","37","12","40.7037992","-74.00838676"
"Avenue D & E 12 Street","2013-06-05 12:57:01 AM","7","24","12","40.72580614","-73.97422494"
"Madison & Clinton","2013-06-05 12:57:01 AM","18","27","9","40.71269042","-73.98776323"
"Stanton St & Mangin St","2013-06-05 12:57:01 AM","5","19","14","40.71782143","-73.97628939"
"Columbia St & Rivington St","2013-06-05 12:57:01 AM","11","29","15","40.71739973","-73.98016555"
"Clinton Av & Flushing Av","2013-06-05 12:57:01 AM","7","23","16","40.69794","-73.96986848"
"Monroe St & Bedford Av","2013-06-05 12:57:01 AM","3","23","17","40.6851443","-73.95380904"
"W 13 Street & 6 Avenue","2013-06-05 12:57:01 AM","26","35","8","40.73649403","-73.99704374"
"Bank St & Hudson St","2013-06-05 12:57:01 AM","1","27","22","40.73652889","-74.00618026"
"W Houston St & Hudson St","2013-06-05 12:57:01 AM","31","35","3","40.72873888","-74.00748842"
"West Broadway & Spring St","2013-06-05 12:57:01 AM","14","42","21","40.72490985","-74.00154702"
"Rivington St and Ridge St","2013-06-05 12:57:01 AM","6","23","11","40.71850211","-73.98329859"
"Clinton St & Grand St","2013-06-05 12:57:01 AM","9","28","18","40.71559509","-73.9870295"
"Front St & Maiden Ln","2013-06-05 12:57:01 AM","9","39","26","40.70530954","-74.00612572"
"W 56 Street and 6 Avenue","2013-06-05 12:57:01 AM","29","36","7","40.76340613","-73.97722479"
"S Portland Av & Hanson Pl","2013-06-05 12:57:01 AM","3","27","17","40.68539567","-73.97431458"
"Myrtle Av & Emerson Pl","2013-06-05 12:57:01 AM","5","31","22","40.69363137","-73.96223558"
"Bayard St & Baxter St","2013-06-05 12:57:01 AM","25","43","14","40.71602118","-73.99974372"
"Bialystoker Pl & Delancey St","2013-06-05 12:57:01 AM","6","23","15","40.71622644","-73.98261206"
"E 11 Street & Broadway","2013-06-05 12:57:01 AM","23","26","2","40.73261787","-73.99158043"
"Christopher & Greenwich St","2013-06-05 12:57:01 AM","2","36","32","40.73291553","-74.00711384"
"E 47 St and Park Av","2013-06-05 12:57:01 AM","51","55","1","40.75510267","-73.97498696"
"William St & Pine St","2013-06-05 12:57:01 AM","37","39","1","40.70717936","-74.00887308"
"Allen St & Hester St","2013-06-05 12:57:01 AM","22","43","18","40.71605866","-73.99190759"
"Broadway and W 37 Street","2013-06-05 12:57:01 AM","48","57","5","40.75172632","-73.98753523"
"West Thames Street","2013-06-05 12:57:01 AM","3","48","42","40.70834698","-74.01713445"
"Lafayette Av & Classon Av","2013-06-05 12:57:01 AM","11","27","13","40.68900443","-73.96023854"
"Fulton St & Grand Av","2013-06-05 12:57:01 AM","7","31","22","40.68223166","-73.9614583"
"Clinton Av & Myrtle Av","2013-06-05 12:57:01 AM","4","33","25","40.693261","-73.968896"
"E 53 St and Lexington Av","2013-06-05 12:57:01 AM","30","34","1","40.75828065","-73.97069431"
"Carmine St & 6 Av","2013-06-05 12:57:01 AM","6","39","31","40.73038599","-74.00214988"
"Washington Pl & 6 Av","2013-06-05 12:57:01 AM","18","35","16","40.73224119","-74.00026394"
"Franklin & Myrtle Ave","2013-06-05 12:57:01 AM","0","27","23","40.694528","-73.958089"
"Willoughby Av & Walworth","2013-06-05 12:57:01 AM","1","19","17","40.69331716","-73.95381995"
"Mercer St & Bleecker St","2013-06-05 12:57:01 AM","17","30","12","40.72679454","-73.99695094"
"John St & William St","2013-06-05 12:57:01 AM","36","43","6","40.70862144","-74.00722156"
"6 Avenue & Canal Street","2013-06-05 12:57:01 AM","43","47","2","40.72243797","-74.00566443"
"W 4 St & 7 Av South","2013-06-05 12:57:01 AM","33","39","4","40.73401143","-74.00293877"
"University Pl & E 14 St","2013-06-05 12:57:01 AM","11","36","20","40.73492695","-73.99200509"
"Greenwich Av & 7 Av","2013-06-05 12:57:01 AM","20","41","19","40.73625106","-74.00083692"
"Fulton St & Waverly Av","2013-06-05 12:57:01 AM","5","31","22","40.68317813","-73.9659641"
"Centre St & Worth St","2013-06-05 12:57:01 AM","36","43","4","40.71494807","-74.00234482"
"Centre St & Chambers St","2013-06-05 12:57:01 AM","14","39","24","40.71273266","-74.0046073"
"Broadway and Berry","2013-06-05 12:57:01 AM","2","27","24","40.71044554","-73.96525063"
"Duffield St & Willoughby St","2013-06-05 12:57:01 AM","14","31","17","40.69221589","-73.9842844"
"Clark St & Henry St","2013-06-05 12:57:01 AM","2","31","27","40.69760127","-73.99344559"
"Jay St and Tech Pl","2013-06-05 12:57:01 AM","16","35","19","40.69507866","-73.9872478"
"E 5 Street & Avenue C","2013-06-05 12:57:01 AM","11","31","19","40.72299208","-73.97995466"
"E 9 Street & Avenue C","2013-06-05 12:57:01 AM","2","36","30","40.72521311","-73.97768752"
"Bond St & Schermerhorn St","2013-06-05 12:57:01 AM","6","30","17","40.68807003","-73.98410637"
